{"type":"FeatureCollection","features":[
{"type":"Feature","geometry":{"type":"Point","coordinates":[121.4251646,31.3052617]},"properties":{"highway":"traffic_signals"}},
{"type":"Feature","geometry":{"type":"Point","coordinates":[121.4038074,31.3168658]},"properties":{"bus":"yes","name":"沪太路上大路","name:zh":"沪太路上大路","public_transport":"stop_position"}},
{"type":"Feature","geometry":{"type":"Point","coordinates":[121.4092392,31.3056756]},"properties":{"bus":"yes","name":"沪太路场中路","name:zh":"沪太路场中路","public_transport":"stop_position"}},
{"type":"Feature","geometry":{"type":"Point","coordinates":[121.4054799,31.3094481]},"properties":{"bus":"yes","name":"场联路环镇北路","name:zh":"场联路环镇北路","public_transport":"stop_position"}},
{"type":"Feature","geometry":{"type":"Point","coordinates":[121.4090964,31.3053116]},"properties":{"name":"场中路","name:en":"Changzhong Road","public_transport":"station"}},
{"type":"Feature","geometry":{"type":"Point","coordinates":[121.4900855,31.1805642]},"properties":{"highway":"traffic_signals","traffic_signals":"signal"}},
{"type":"Feature","geometry":{"type":"Point","coordinates":[121.4960919,31.1842484]},"properties":{"highway":"traffic_signals","traffic_signals":"signal"}},
{"type":"Feature","geometry":{"type":"Point","coordinates":[121.384294,31.3016808]},"properties":{"bus":"yes","name":"南大路桃浦车站","name:zh":"南大路桃浦车站","public_transport":"stop_position"}},
{"type":"Feature","geometry":{"type":"Point","coordinates":[121.3831139,31.3174443]},"properties":{"bicycle":"yes","entrance":"yes","foot":"yes","motorcar":"no","name":"西门"}},
{"type":"Feature","geometry":{"type":"Point","coordinates":[121.4248082,31.3011793]},"properties":{"crossing:bell":"yes","crossing:light":"yes","name":"南何支线 K8 少年村路道口","railway":"level_crossing"}},
{"type":"Feature","geometry":{"type":"Point","coordinates":[121.4162783,31.3011857]},"properties":{"crossing:bell":"yes","crossing:light":"yes","name":"南何支线 K7 沪太支路道口","railway":"level_crossing"}},
{"type":"Feature","geometry":{"type":"Point","coordinates":[121.394983,31.3033274]},"properties":{"seamark:type":"gate","waterway":"lock_gate"}},
{"type":"Feature","geometry":{"type":"Point","coordinates":[121.4019027,31.3013751]},"properties":{"railway":"level_crossing"}},
{"type":"Feature","geometry":{"type":"Point","coordinates":[121.3948851,31.3033344]},"properties":{"seamark:type":"gate","waterway":"lock_gate"}},
{"type":"Feature","geometry":{"type":"Point","coordinates":[121.3803691,31.3347913]},"properties":{"waterway":"lock_gate"}},
{"type":"Feature","geometry":{"type":"Point","coordinates":[121.3775709,31.3169743]},"properties":{"addr:city":"宝山区","addr:district":"大场镇","addr:housenumber":"205","addr:postcode":"200444","addr:province":"上海市","addr:street":"聚丰园路","brand":"山姆会员商店","brand:en":"Sam's Club","brand:wikidata":"Q1972120","brand:zh":"山姆会员商店","name":"山姆会员商店","name:en":"Sam's Club","name:zh":"山姆会员商店","opening_hours":"Mo-Su 08:00-22:00","shop":"wholesale"}},
{"type":"Feature","geometry":{"type":"Point","coordinates":[121.3850543,31.3231609]},"properties":{"building":"apartments","name":"锦秋花园"}},
{"type":"Feature","geometry":{"type":"Point","coordinates":[121.3799951,31.3170286]},"properties":{"amenity":"post_office","level":"1","name":"聚丰园路邮政支局"}},
{"type":"Feature","geometry":{"type":"Point","coordinates":[121.3814032,31.3170705]},"properties":{"amenity":"cinema","name":"大地数字影院"}},
{"type":"Feature","geometry":{"type":"Point","coordinates":[121.4107598,31.3044815]},"properties":{"bus":"yes","name":"场中路沪太路","name:zh":"场中路沪太路","public_transport":"stop_position"}},
{"type":"Feature","geometry":{"type":"Point","coordinates":[121.4186875,31.3037368]},"properties":{"highway":"turning_circle"}},
{"type":"Feature","geometry":{"type":"Point","coordinates":[121.4203572,31.3041889]},"properties":{"highway":"turning_circle"}},
{"type":"Feature","geometry":{"type":"Point","coordinates":[121.4133413,31.3339237]},"properties":{"noexit":"yes"}},
{"type":"Feature","geometry":{"type":"Point","coordinates":[121.4262796,31.3115809]},"properties":{"access":"private","barrier":"gate"}},
{"type":"Feature","geometry":{"type":"Point","coordinates":[121.4234562,31.3305928]},"properties":{"capital":"8","name":"庙行镇","name:en":"Miaohang","name:zh":"庙行镇","place":"town","place:CN":"town"}},
{"type":"Feature","geometry":{"type":"Point","coordinates":[121.403858,31.3159387]},"properties":{"railway":"subway_entrance","ref":"3"}},
{"type":"Feature","geometry":{"type":"Point","coordinates":[121.4083139,31.3060617]},"properties":{"railway":"subway_entrance","ref":"3"}},
{"type":"Feature","geometry":{"type":"Point","coordinates":[121.393575,31.3229594]},"properties":{"railway":"subway_entrance","ref":"2","wheelchair":"no"}},
{"type":"Feature","geometry":{"type":"Point","coordinates":[121.3948643,31.3236336]},"properties":{"railway":"subway_entrance","ref":"1"}},
{"type":"Feature","geometry":{"type":"Point","coordinates":[121.3846486,31.3226774]},"properties":{"railway":"subway_entrance","ref":"1"}},
{"type":"Feature","geometry":{"type":"Point","coordinates":[121.4044402,31.3162538]},"properties":{"railway":"subway_entrance","ref":"2"}},
{"type":"Feature","geometry":{"type":"Point","coordinates":[121.4096092,31.304974]},"properties":{"railway":"subway_entrance","ref":"1"}},
{"type":"Feature","geometry":{"type":"Point","coordinates":[121.4083404,31.3050074]},"properties":{"railway":"subway_entrance","ref":"2"}},
{"type":"Feature","geometry":{"type":"Point","coordinates":[121.3833461,31.3224711]},"properties":{"railway":"subway_entrance","ref":"3"}},
{"type":"Feature","geometry":{"type":"Point","coordinates":[121.3846947,31.3222573]},"properties":{"railway":"subway_entrance","ref":"2"}},
{"type":"Feature","geometry":{"type":"Point","coordinates":[121.3935677,31.3233417]},"properties":{"railway":"subway_entrance","ref":"3"}},
{"type":"Feature","geometry":{"type":"Point","coordinates":[121.3935275,31.3237025]},"properties":{"railway":"subway_entrance","ref":"4"}},
{"type":"Feature","geometry":{"type":"Point","coordinates":[121.4039737,31.3176149]},"properties":{"railway":"subway_entrance","ref":"1"}},
{"type":"Feature","geometry":{"type":"Point","coordinates":[121.4035067,31.3168868]},"properties":{"railway":"subway_entrance","ref":"4"}},
{"type":"Feature","geometry":{"type":"Point","coordinates":[121.3775824,31.3100078]},"properties":{"bus":"yes","name":"环镇北路祁连山路","name:zh":"环镇北路祁连山路","public_transport":"stop_position"}},
{"type":"Feature","geometry":{"type":"Point","coordinates":[121.3822432,31.3204419]},"properties":{"seamark:type":"gate","waterway":"lock_gate"}},
{"type":"Feature","geometry":{"type":"Point","coordinates":[121.3998759,31.3283572]},"properties":{"bus":"yes","name":"纬地路沪太路","name:zh":"纬地路沪太路","public_transport":"stop_position"}},
{"type":"Feature","geometry":{"type":"Point","coordinates":[121.4190182,31.3294535]},"properties":{"access":"no","barrier":"lift_gate"}},
{"type":"Feature","geometry":{"type":"Point","coordinates":[121.3840908,31.3354351]},"properties":{"waterway":"weir"}},
{"type":"Feature","geometry":{"type":"Point","coordinates":[121.3838054,31.3359698]},"properties":{"waterway":"lock_gate"}},
{"type":"Feature","geometry":{"type":"Point","coordinates":[121.4129992,31.3332184]},"properties":{"barrier":"bollard"}},
{"type":"Feature","geometry":{"type":"Point","coordinates":[121.432664,31.2425918]},"properties":{"name":"长寿路","name:en":"Changshou Road","name:zh":"长寿路","network":"上海地铁","public_transport":"stop_position","railway":"stop","subway":"yes"}},
{"type":"Feature","geometry":{"type":"Point","coordinates":[121.4172532,31.2572552]},"properties":{"name":"岚皋路","name:en":"Lan'gao Road","name:zh":"岚皋路","network":"上海地铁","public_transport":"stop_position","railway":"stop","subway":"yes"}},
{"type":"Feature","geometry":{"type":"Point","coordinates":[121.418498,31.2751359]},"properties":{"name":"大华三路","name:en":"Dahuasan Road","name:zh":"大华三路","network":"上海地铁","public_transport":"stop_position","railway":"stop","subway":"yes"}},
{"type":"Feature","geometry":{"type":"Point","coordinates":[121.4184457,31.2761786]},"properties":{"name":"大华三路","name:en":"Dahuasan Road","name:zh":"大华三路","network":"上海地铁","public_transport":"stop_position","railway":"stop","subway":"yes"}},
{"type":"Feature","geometry":{"type":"Point","coordinates":[121.4525262,31.1867538]},"properties":{"name":"龙华中路","name:en":"Middle Longhua Road","name:zh":"龙华中路","network":"上海地铁","public_transport":"stop_position","railway":"stop","subway":"yes"}},
{"type":"Feature","geometry":{"type":"Point","coordinates":[121.5351934,31.1897866]},"properties":{"name":"锦绣路","name:en":"Jinxiu Road","name:zh":"锦绣路","network":"上海地铁","public_transport":"stop_position","railway":"stop","subway":"yes"}},
{"type":"Feature","geometry":{"type":"Point","coordinates":[121.5536224,31.205757]},"properties":{"name":"龙阳路","name:en":"Longyang Road","name:zh":"龙阳路","network":"上海地铁","public_transport":"stop_position","railway":"stop","subway":"yes"}},
{"type":"Feature","geometry":{"type":"Point","coordinates":[121.4086273,31.3050495]},"properties":{"name":"场中路","name:en":"Changzhong Road","name:zh":"场中路","network":"上海地铁","public_transport":"stop_position","railway":"stop","subway":"yes"}},
{"type":"Feature","geometry":{"type":"Point","coordinates":[121.4040757,31.316375]},"properties":{"name":"上大路","name:en":"Shangda Road","name:zh":"上大路","network":"上海地铁","public_transport":"stop_position","railway":"stop","subway":"yes"}},
{"type":"Feature","geometry":{"type":"Point","coordinates":[121.3846558,31.3224712]},"properties":{"name":"上海大学","name:en":"Shanghai University","name:zh":"上海大学","network":"上海地铁","public_transport":"stop_position","railway":"stop","subway":"yes"}},
{"type":"Feature","geometry":{"type":"Point","coordinates":[121.3832533,31.3222307]},"properties":{"name":"上海大学","name:en":"Shanghai University","name:zh":"上海大学","network":"上海地铁","public_transport":"stop_position","railway":"stop","subway":"yes"}},
{"type":"Feature","geometry":{"type":"Point","coordinates":[121.3681117,31.34682]},"properties":{"name":"顾村公园","name:en":"Gucun Park","name:zh":"顾村公园","network":"上海地铁","public_transport":"stop_position","railway":"stop","subway":"yes"}},
{"type":"Feature","geometry":{"type":"Point","coordinates":[121.393022,31.3235513]},"properties":{"name":"南陈路","name:en":"Nanchen Road","name:zh":"南陈路","network":"上海地铁","public_transport":"stop_position","railway":"stop","subway":"yes"}},
{"type":"Feature","geometry":{"type":"Point","coordinates":[121.4085822,31.3062455]},"properties":{"name":"场中路","name:en":"Changzhong Road","name:zh":"场中路","network":"上海地铁","public_transport":"stop_position","railway":"stop","subway":"yes"}},
{"type":"Feature","geometry":{"type":"Point","coordinates":[121.4167265,31.2866424]},"properties":{"name":"行知路","name:en":"Xingzhi Road","name:zh":"行知路","network":"上海地铁","public_transport":"stop_position","railway":"stop","subway":"yes"}},
{"type":"Feature","geometry":{"type":"Point","coordinates":[121.4180892,31.266088]},"properties":{"name":"新村路","name:en":"Xincun Road","name:zh":"新村路","network":"上海地铁","public_transport":"stop_position","railway":"stop","subway":"yes"}},
{"type":"Feature","geometry":{"type":"Point","coordinates":[121.4270004,31.2487102]},"properties":{"name":"镇坪路","name:en":"Zhenping Road","name:zh":"镇坪路","network":"上海地铁","public_transport":"stop_position","railway":"stop","subway":"yes"}},
{"type":"Feature","geometry":{"type":"Point","coordinates":[121.4438538,31.2252219]},"properties":{"name":"静安寺","name:en":"Jing'an Temple","name:zh":"静安寺","network":"上海地铁","public_transport":"stop_position","railway":"stop","subway":"yes"}},
{"type":"Feature","geometry":{"type":"Point","coordinates":[121.4443518,31.2158226]},"properties":{"name":"常熟路","name:en":"Changshu Road","name:zh":"常熟路","network":"上海地铁","public_transport":"stop_position","railway":"stop","subway":"yes"}},
{"type":"Feature","geometry":{"type":"Point","coordinates":[121.4896867,31.1805434]},"properties":{"name":"耀华路","name:en":"Yaohua Road","name:zh":"耀华路","network":"上海地铁","public_transport":"stop_position","railway":"stop","subway":"yes"}},
{"type":"Feature","geometry":{"type":"Point","coordinates":[121.4955227,31.1838652]},"properties":{"name":"云台路","name:en":"Yuntai Road","name:zh":"云台路","network":"上海地铁","public_transport":"stop_position","railway":"stop","subway":"yes"}},
{"type":"Feature","geometry":{"type":"Point","coordinates":[121.5050174,31.1874796]},"properties":{"name":"高科西路","name:en":"West Gaoke Road","name:zh":"高科西路","network":"上海地铁","public_transport":"stop_position","railway":"stop","subway":"yes"}},
{"type":"Feature","geometry":{"type":"Point","coordinates":[121.3582022,31.3592752]},"properties":{"name":"刘行","name:en":"Liuhang","name:zh":"刘行","network":"上海地铁","public_transport":"stop_position","railway":"stop","subway":"yes"}},
{"type":"Feature","geometry":{"type":"Point","coordinates":[121.3573345,31.3601758]},"properties":{"name":"刘行","name:en":"Liuhang","name:zh":"刘行","network":"上海地铁","public_transport":"stop_position","railway":"stop","subway":"yes"}},
{"type":"Feature","geometry":{"type":"Point","coordinates":[121.3508174,31.3665756]},"properties":{"name":"潘广路","name:en":"Panguang Road","name:zh":"潘广路","network":"上海地铁","public_transport":"stop_position","railway":"stop","subway":"yes"}},
{"type":"Feature","geometry":{"type":"Point","coordinates":[121.3684408,31.3248294]},"properties":{"name":"祁华路","name:en":"Qihua Road","name:zh":"祁华路","network":"上海地铁","public_transport":"stop_position","railway":"stop","subway":"yes"}},
{"type":"Feature","geometry":{"type":"Point","coordinates":[121.4036966,31.317573200000003]},"properties":{"name":"上大路","name:en":"Shangda Road","name:zh":"上大路","network":"上海地铁","public_transport":"stop_position","railway":"stop","subway":"yes"}},
{"type":"Feature","geometry":{"type":"Point","coordinates":[121.4112933,31.2957544]},"properties":{"name":"大场镇","name:en":"Dachang Town","name:zh":"大场镇","network":"上海地铁","public_transport":"stop_position","railway":"stop","subway":"yes"}},
{"type":"Feature","geometry":{"type":"Point","coordinates":[121.4170747,31.2586716]},"properties":{"name":"岚皋路","name:en":"Lan'gao Road","name:zh":"岚皋路","network":"上海地铁","public_transport":"stop_position","railway":"stop","subway":"yes"}},
{"type":"Feature","geometry":{"type":"Point","coordinates":[121.4379553,31.235781]},"properties":{"name":"昌平路","name:en":"Changping Road","name:zh":"昌平路","network":"上海地铁","public_transport":"stop_position","railway":"stop","subway":"yes"}},
{"type":"Feature","geometry":{"type":"Point","coordinates":[121.4459456,31.2010969]},"properties":{"name":"肇嘉浜路","name:en":"Zhaojiabang Road","name:zh":"肇嘉浜路","network":"上海地铁","public_transport":"stop_position","railway":"stop","subway":"yes"}},
{"type":"Feature","geometry":{"type":"Point","coordinates":[121.4501687,31.1929593]},"properties":{"name":"东安路","name:en":"Dong'an Road","name:zh":"东安路","network":"上海地铁","public_transport":"stop_position","railway":"stop","subway":"yes"}},
{"type":"Feature","geometry":{"type":"Point","coordinates":[121.4685448,31.1740369]},"properties":{"name":"后滩","name:en":"Houtan","name:zh":"后滩","network":"上海地铁","public_transport":"stop_position","railway":"stop","subway":"yes"}},
{"type":"Feature","geometry":{"type":"Point","coordinates":[121.4811817,31.1765063]},"properties":{"name":"长清路","name:en":"Changqing Road","name:zh":"长清路","network":"上海地铁","public_transport":"stop_position","railway":"stop","subway":"yes"}},
{"type":"Feature","geometry":{"type":"Point","coordinates":[121.5198568,31.1897314]},"properties":{"name":"杨高南路","name:en":"South Yanggao Road","name:zh":"杨高南路","network":"上海地铁","public_transport":"stop_position","railway":"stop","subway":"yes"}},
{"type":"Feature","geometry":{"type":"Point","coordinates":[121.5458788,31.1949043]},"properties":{"name":"芳华路","name:en":"Fanghua Road","name:zh":"芳华路","network":"上海地铁","public_transport":"stop_position","railway":"stop","subway":"yes"}},
{"type":"Feature","geometry":{"type":"Point","coordinates":[121.5585621,31.2129965]},"properties":{"name":"花木路","name:en":"Huamu Road","name:zh":"花木路","network":"上海地铁","public_transport":"stop_position","railway":"stop","subway":"yes"}},
{"type":"Feature","geometry":{"type":"Point","coordinates":[121.3689853,31.3456433]},"properties":{"name":"顾村公园","name:en":"Gucun Park","name:zh":"顾村公园","network":"上海地铁","public_transport":"stop_position","railway":"stop","subway":"yes"}},
{"type":"Feature","geometry":{"type":"Point","coordinates":[121.4117566,31.2949031]},"properties":{"name":"大场镇","name:en":"Dachang Town","name:zh":"大场镇","network":"上海地铁","public_transport":"stop_position","railway":"stop","subway":"yes"}},
{"type":"Feature","geometry":{"type":"Point","coordinates":[121.4178346,31.2650693]},"properties":{"name":"新村路","name:en":"Xincun Road","name:zh":"新村路","network":"上海地铁","public_transport":"stop_position","railway":"stop","subway":"yes"}},
{"type":"Feature","geometry":{"type":"Point","coordinates":[121.433661,31.2418081]},"properties":{"name":"长寿路","name:en":"Changshou Road","name:zh":"长寿路","network":"上海地铁","public_transport":"stop_position","railway":"stop","subway":"yes"}},
{"type":"Feature","geometry":{"type":"Point","coordinates":[121.4384725,31.2350088]},"properties":{"name":"昌平路","name:en":"Changping Road","name:zh":"昌平路","network":"上海地铁","public_transport":"stop_position","railway":"stop","subway":"yes"}},
{"type":"Feature","geometry":{"type":"Point","coordinates":[121.445902,31.2010939]},"properties":{"name":"肇嘉浜路","name:en":"Zhaojiabang Road","name:zh":"肇嘉浜路","network":"上海地铁","public_transport":"stop_position","railway":"stop","subway":"yes"}},
{"type":"Feature","geometry":{"type":"Point","coordinates":[121.4503969,31.1925436]},"properties":{"name":"东安路","name:en":"Dong'an Road","name:zh":"东安路","network":"上海地铁","public_transport":"stop_position","railway":"stop","subway":"yes"}},
{"type":"Feature","geometry":{"type":"Point","coordinates":[121.4690491,31.1739139]},"properties":{"name":"后滩","name:en":"Houtan","name:zh":"后滩","network":"上海地铁","public_transport":"stop_position","railway":"stop","subway":"yes"}},
{"type":"Feature","geometry":{"type":"Point","coordinates":[121.482409,31.1771537]},"properties":{"name":"长清路","name:en":"Changqing Road","name:zh":"长清路","network":"上海地铁","public_transport":"stop_position","railway":"stop","subway":"yes"}},
{"type":"Feature","geometry":{"type":"Point","coordinates":[121.3518324,31.3654514]},"properties":{"name":"潘广路","name:en":"Panguang Road","name:zh":"潘广路","network":"上海地铁","public_transport":"stop_position","railway":"stop","subway":"yes"}},
{"type":"Feature","geometry":{"type":"Point","coordinates":[121.3690565,31.3235545]},"properties":{"name":"祁华路","name:en":"Qihua Road","name:zh":"祁华路","network":"上海地铁","public_transport":"stop_position","railway":"stop","subway":"yes"}},
{"type":"Feature","geometry":{"type":"Point","coordinates":[121.3942271,31.3235666]},"properties":{"name":"南陈路","name:en":"Nanchen Road","name:zh":"南陈路","network":"上海地铁","public_transport":"stop_position","railway":"stop","subway":"yes"}},
{"type":"Feature","geometry":{"type":"Point","coordinates":[121.417543,31.2852481]},"properties":{"name":"行知路","name:en":"Xingzhi Road","name:zh":"行知路","network":"上海地铁","public_transport":"stop_position","railway":"stop","subway":"yes"}},
{"type":"Feature","geometry":{"type":"Point","coordinates":[121.427186,31.2483656]},"properties":{"name":"镇坪路","name:en":"Zhenping Road","name:zh":"镇坪路","network":"上海地铁","public_transport":"stop_position","railway":"stop","subway":"yes"}},
{"type":"Feature","geometry":{"type":"Point","coordinates":[121.4438124,31.2252098]},"properties":{"name":"静安寺","name:en":"Jing'an Temple","name:zh":"静安寺","network":"上海地铁","public_transport":"stop_position","railway":"stop","subway":"yes"}},
{"type":"Feature","geometry":{"type":"Point","coordinates":[121.4447734,31.2147604]},"properties":{"name":"常熟路","name:en":"Changshu Road","name:zh":"常熟路","network":"上海地铁","public_transport":"stop_position","railway":"stop","subway":"yes","toilets":"yes"}},
{"type":"Feature","geometry":{"type":"Point","coordinates":[121.4527709,31.1856643]},"properties":{"name":"龙华中路","name:en":"Middle Longhua Road","name:zh":"龙华中路","network":"上海地铁","public_transport":"stop_position","railway":"stop","subway":"yes"}},
{"type":"Feature","geometry":{"type":"Point","coordinates":[121.4906856,31.1806489]},"properties":{"name":"耀华路","name:en":"Yaohua Road","name:zh":"耀华路","network":"上海地铁","public_transport":"stop_position","railway":"stop","subway":"yes"}},
{"type":"Feature","geometry":{"type":"Point","coordinates":[121.4049428,31.3100587]},"properties":{"name:en":"Lawson","shop":"convenience"}},
{"type":"Feature","geometry":{"type":"Point","coordinates":[121.3772466,31.3168457]},"properties":{"amenity":"fast_food","brand":"肯德基","brand:en":"KFC","brand:wikidata":"Q524757","brand:wikipedia":"zh:肯德基","brand:zh":"肯德基","cuisine":"chicken","name":"肯德基","name:en":"KFC","name:zh":"肯德基","takeaway":"yes"}},
{"type":"Feature","geometry":{"type":"Point","coordinates":[121.393561,31.3117906]},"properties":{"shop":"car"}},
{"type":"Feature","geometry":{"type":"Point","coordinates":[121.3838377,31.2991798]},"properties":{"access":"private","railway":"level_crossing"}},
{"type":"Feature","geometry":{"type":"Point","coordinates":[121.3838283,31.2992182]},"properties":{"access":"private","railway":"level_crossing"}},
{"type":"Feature","geometry":{"type":"Point","coordinates":[121.3838189,31.2992709]},"properties":{"access":"private","railway":"level_crossing"}},
{"type":"Feature","geometry":{"type":"Point","coordinates":[121.3838035,31.2993162]},"properties":{"access":"private","railway":"level_crossing"}},
{"type":"Feature","geometry":{"type":"Point","coordinates":[121.3912437,31.3003995]},"properties":{"crossing:bell":"yes","crossing:light":"yes","name":"南何支线 K4 南秀路道口","railway":"level_crossing"}},
{"type":"Feature","geometry":{"type":"Point","coordinates":[121.4023241,31.3016642]},"properties":{"railway":"level_crossing"}},
{"type":"Feature","geometry":{"type":"Point","coordinates":[121.3988059,31.3010983]},"properties":{"railway":"level_crossing"}},
{"type":"Feature","geometry":{"type":"Point","coordinates":[121.4024284,31.3012571]},"properties":{"crossing:bell":"yes","crossing:light":"yes","name":"南何支线 K5 宝华厂道口","railway":"level_crossing"}},
{"type":"Feature","geometry":{"type":"Point","coordinates":[121.3945114,31.3001283]},"properties":{"railway":"level_crossing"}},
{"type":"Feature","geometry":{"type":"Point","coordinates":[121.3838177,31.2993926]},"properties":{"access":"private","railway":"level_crossing"}},
{"type":"Feature","geometry":{"type":"Point","coordinates":[121.3989929,31.299217]},"properties":{"railway":"level_crossing"}},
{"type":"Feature","geometry":{"type":"Point","coordinates":[121.3837995,31.2994476]},"properties":{"access":"private","railway":"level_crossing"}},
{"type":"Feature","geometry":{"type":"Point","coordinates":[121.3944948,31.2999539]},"properties":{"railway":"level_crossing"}},
{"type":"Feature","geometry":{"type":"Point","coordinates":[121.3838168,31.299353]},"properties":{"access":"private","railway":"level_crossing"}},
{"type":"Feature","geometry":{"type":"Point","coordinates":[121.4009004,31.2983904]},"properties":{"railway":"level_crossing"}},
{"type":"Feature","geometry":{"type":"Point","coordinates":[121.3981055,31.3060727]},"properties":{"railway":"level_crossing"}},
{"type":"Feature","geometry":{"type":"Point","coordinates":[121.3809818,31.3170405]},"properties":{"amenity":"cafe","brand":"星巴克","brand:en":"Starbucks","brand:wikidata":"Q37158","brand:wikipedia":"zh:星巴克","brand:zh":"星巴克","cuisine":"coffee_shop","name":"星巴克","name:en":"Starbucks","name:zh":"星巴克","official_name":"Starbucks Coffee","takeaway":"yes"}},
{"type":"Feature","geometry":{"type":"Point","coordinates":[121.3777804,31.3168968]},"properties":{"amenity":"fast_food","brand":"麦当劳","brand:en":"McDonald's","brand:wikidata":"Q38076","brand:wikipedia":"zh:麦当劳","brand:zh":"麦当劳","brand:zh-Hans":"麦当劳","cuisine":"burger","name":"麦当劳","name:en":"McDonald's","name:zh":"麦当劳","name:zh-Hans":"麦当劳","takeaway":"yes"}},
{"type":"Feature","geometry":{"type":"Point","coordinates":[121.3834252,31.3176437]},"properties":{"name":"上海教育超市","opening_hours":"09:00-23:00","shop":"supermarket"}},
{"type":"Feature","geometry":{"type":"Point","coordinates":[121.389555,31.3166895]},"properties":{"name":"上海教育超市","shop":"supermarket"}},
{"type":"Feature","geometry":{"type":"Point","coordinates":[121.3817286,31.3166465]},"properties":{"name":"上海教育超市","shop":"supermarket"}},
{"type":"Feature","geometry":{"type":"Point","coordinates":[121.3845403,31.3220282]},"properties":{"bicycle":"yes","entrance":"yes","foot":"yes","motor_vehicle":"yes","name":"北门"}},
{"type":"Feature","geometry":{"type":"Point","coordinates":[121.4076322,31.3095156]},"properties":{"railway":"level_crossing"}},
{"type":"Feature","geometry":{"type":"Point","coordinates":[121.4078006,31.30963]},"properties":{"railway":"level_crossing"}},
{"type":"Feature","geometry":{"type":"Point","coordinates":[121.4059226,31.3083884]},"properties":{"railway":"level_crossing"}},
{"type":"Feature","geometry":{"type":"Point","coordinates":[121.3791427,31.3173638]},"properties":{"internet_access":"yes","internet_access:fee":"no","name":"尖微","stars":"1","tourism":"hotel"}},
{"type":"Feature","geometry":{"type":"Point","coordinates":[121.383555,31.2996904]},"properties":{"access":"private","railway":"level_crossing"}},
{"type":"Feature","geometry":{"type":"Point","coordinates":[121.3841788,31.3002976]},"properties":{"access":"private","railway":"level_crossing"}},
{"type":"Feature","geometry":{"type":"Point","coordinates":[121.383532,31.2997335]},"properties":{"access":"private","railway":"level_crossing"}},
{"type":"Feature","geometry":{"type":"Point","coordinates":[121.384215,31.3002684]},"properties":{"access":"private","railway":"level_crossing"}},
{"type":"Feature","geometry":{"type":"Point","coordinates":[121.4662389,31.1752132]},"properties":{"highway":"traffic_signals","traffic_signals":"traffic_lights"}},
{"type":"Feature","geometry":{"type":"Point","coordinates":[121.387354,31.2839223]},"properties":{"name":"古浪路","name:en":"Gulang Road","public_transport":"stop_position","railway":"stop","subway":"yes"}},
{"type":"Feature","geometry":{"type":"Point","coordinates":[121.3766016,31.315325]},"properties":{"bus":"yes","highway":"bus_stop","name":"祁连新村","name:zh":"祁连新村","public_transport":"platform"}},
{"type":"Feature","geometry":{"type":"Point","coordinates":[121.3988028,31.3010467]},"properties":{"name":"南何支线 K5 化工部道口","railway":"level_crossing"}},
{"type":"Feature","geometry":{"type":"Point","coordinates":[121.3821034,31.3150477]},"properties":{"highway":"crossing"}},
{"type":"Feature","geometry":{"type":"Point","coordinates":[121.3821189,31.314883]},"properties":{"highway":"crossing"}},
{"type":"Feature","geometry":{"type":"Point","coordinates":[121.3873299,31.2777559]},"properties":{"name":"武威东路","name:en":"East Wuwei Road","public_transport":"stop_position","railway":"stop","subway":"yes"}},
{"type":"Feature","geometry":{"type":"Point","coordinates":[121.3875638,31.2849413]},"properties":{"name":"古浪路","name:en":"Gulang Road","public_transport":"stop_position","railway":"stop","subway":"yes"}},
{"type":"Feature","geometry":{"type":"Point","coordinates":[121.3756575,31.3010443]},"properties":{"name":"南大路","name:en":"Nanda Road","public_transport":"stop_position","railway":"stop","subway":"yes"}},
{"type":"Feature","geometry":{"type":"Point","coordinates":[121.3774272,31.3227374]},"properties":{"name":"锦秋路","name:en":"Jinqiu Road","public_transport":"stop_position","railway":"stop","subway":"yes"}},
{"type":"Feature","geometry":{"type":"Point","coordinates":[121.3701367,31.3447036]},"properties":{"name":"顾村公园","name:en":"Gucun Park","name:zh":"顾村公园","public_transport":"stop_position","railway":"stop","subway":"yes"}},
{"type":"Feature","geometry":{"type":"Point","coordinates":[121.3695363,31.3456653]},"properties":{"name":"顾村公园","name:en":"Gucun Park","name:zh":"顾村公园","public_transport":"stop_position","railway":"stop","subway":"yes"}},
{"type":"Feature","geometry":{"type":"Point","coordinates":[121.4171624,31.3078178]},"properties":{"highway":"turning_loop"}},
{"type":"Feature","geometry":{"type":"Point","coordinates":[121.4182347,31.3070727]},"properties":{"country":"CN","flag:name":"China","flag:type":"national","flag:wikidata":"Q131147","man_made":"flagpole","subject":"People's Republic of China","subject:wikidata":"Q148"}},
{"type":"Feature","geometry":{"type":"Point","coordinates":[121.4170791,31.309496]},"properties":{"country":"CN","flag:name":"China","flag:type":"national","flag:wikidata":"Q131147","man_made":"flagpole","subject":"People's Republic of China","subject:wikidata":"Q148"}},
{"type":"Feature","geometry":{"type":"Point","coordinates":[121.4176817,31.3050952]},"properties":{"barrier":"gate"}},
{"type":"Feature","geometry":{"type":"Point","coordinates":[121.411883,31.3057049]},"properties":{"leisure":"outdoor_seating"}},
{"type":"Feature","geometry":{"type":"Point","coordinates":[121.4121189,31.3047178]},"properties":{"barrier":"gate"}},
{"type":"Feature","geometry":{"type":"Point","coordinates":[121.4105704,31.3005539]},"properties":{"access":"no","barrier":"gate"}},
{"type":"Feature","geometry":{"type":"Point","coordinates":[121.3994538,31.3056345]},"properties":{"railway":"level_crossing"}},
{"type":"Feature","geometry":{"type":"Point","coordinates":[121.3994699,31.3056743]},"properties":{"railway":"level_crossing"}},
{"type":"Feature","geometry":{"type":"Point","coordinates":[121.399537,31.3057001]},"properties":{"railway":"level_crossing"}},
{"type":"Feature","geometry":{"type":"Point","coordinates":[121.4020579,31.3048682]},"properties":{"railway":"level_crossing"}},
{"type":"Feature","geometry":{"type":"Point","coordinates":[121.3980945,31.3060364]},"properties":{"railway":"level_crossing"}},
{"type":"Feature","geometry":{"type":"Point","coordinates":[121.4020319,31.3038188]},"properties":{"highway":"turning_loop"}},
{"type":"Feature","geometry":{"type":"Point","coordinates":[121.4183554,31.3126218]},"properties":{"barrier":"gate"}},
{"type":"Feature","geometry":{"type":"Point","coordinates":[121.4188162,31.3126752]},"properties":{"barrier":"gate"}},
{"type":"Feature","geometry":{"type":"Point","coordinates":[121.4272011,31.3099789]},"properties":{"access":"private","barrier":"gate"}},
{"type":"Feature","geometry":{"type":"Point","coordinates":[121.3975284,31.3141658]},"properties":{"access":"private","barrier":"gate"}},
{"type":"Feature","geometry":{"type":"Point","coordinates":[121.4005325,31.3143614]},"properties":{"access":"private","barrier":"gate"}},
{"type":"Feature","geometry":{"type":"Point","coordinates":[121.3989914,31.3099214]},"properties":{"access":"private","barrier":"gate"}},
{"type":"Feature","geometry":{"type":"Point","coordinates":[121.4033853,31.3102728]},"properties":{"access":"private","barrier":"gate"}},
{"type":"Feature","geometry":{"type":"Point","coordinates":[121.3983396,31.3092153]},"properties":{"access":"private","barrier":"gate"}},
{"type":"Feature","geometry":{"type":"Point","coordinates":[121.4081114,31.3107592]},"properties":{"access":"private","barrier":"gate"}},
{"type":"Feature","geometry":{"type":"Point","coordinates":[121.4072432,31.3157898]},"properties":{"access":"private","barrier":"gate"}},
{"type":"Feature","geometry":{"type":"Point","coordinates":[121.4057188,31.3137702]},"properties":{"access":"private","barrier":"gate"}},
{"type":"Feature","geometry":{"type":"Point","coordinates":[121.4066232,31.3119157]},"properties":{"access":"private","barrier":"gate"}},
{"type":"Feature","geometry":{"type":"Point","coordinates":[121.3797914,31.3125532]},"properties":{"access":"private","barrier":"gate"}},
{"type":"Feature","geometry":{"type":"Point","coordinates":[121.3799106,31.3101543]},"properties":{"access":"private","barrier":"gate"}},
{"type":"Feature","geometry":{"type":"Point","coordinates":[121.3953757,31.322265]},"properties":{"waterway":"dam"}},
{"type":"Feature","geometry":{"type":"Point","coordinates":[121.404106,31.3172766]},"properties":{"access":"private","barrier":"gate"}},
{"type":"Feature","geometry":{"type":"Point","coordinates":[121.4030508,31.3228753]},"properties":{"access":"private","barrier":"gate"}},
{"type":"Feature","geometry":{"type":"Point","coordinates":[121.4030812,31.3231982]},"properties":{"access":"private","barrier":"gate"}},
{"type":"Feature","geometry":{"type":"Point","coordinates":[121.3931491,31.3202448]},"properties":{"access":"private","barrier":"lift_gate"}},
{"type":"Feature","geometry":{"type":"Point","coordinates":[121.3771984,31.3216565]},"properties":{"name":"锦秋路","name:en":"Jinqiu Road","public_transport":"stop_position","railway":"stop","subway":"yes"}},
{"type":"Feature","geometry":{"type":"Point","coordinates":[121.377316,31.3221876]},"properties":{"name":"锦秋路","name:en":"Jinqiu Road","name:zh":"锦秋路","network":"上海地铁","network:en":"Shanghai Metro","public_transport":"station","railway":"station","station":"subway","subway":"yes"}},
{"type":"Feature","geometry":{"type":"Point","coordinates":[121.3762497,31.3097755]},"properties":{"name":"丰翔路","name:en":"Fengxiang Road","public_transport":"stop_position","railway":"stop","subway":"yes"}},
{"type":"Feature","geometry":{"type":"Point","coordinates":[121.3765041,31.3107303]},"properties":{"name":"丰翔路","name:en":"Fengxiang Road","public_transport":"stop_position","railway":"stop","subway":"yes"}},
{"type":"Feature","geometry":{"type":"Point","coordinates":[121.3763776,31.3103095]},"properties":{"name":"丰翔路","name:en":"Fengxiang Road","name:zh":"丰翔路","network":"上海地铁","network:en":"Shanghai Metro","public_transport":"station","railway":"station","station":"subway","subway":"yes"}},
{"type":"Feature","geometry":{"type":"Point","coordinates":[121.3754618,31.3000186]},"properties":{"name":"南大路","name:en":"Nanda Road","public_transport":"stop_position","railway":"stop","subway":"yes"}},
{"type":"Feature","geometry":{"type":"Point","coordinates":[121.3755576,31.3004988]},"properties":{"name":"南大路","name:en":"Nanda Road","name:zh":"南大路","network":"上海地铁","network:en":"Shanghai Metro","public_transport":"station","railway":"station","station":"subway","subway":"yes"}},
{"type":"Feature","geometry":{"type":"Point","coordinates":[121.3808828,31.2933102]},"properties":{"name":"祁安路","name:en":"Qi'an Road","name:zh":"祁安路","network":"上海地铁","network:en":"Shanghai Metro","public_transport":"stop_position","railway":"stop","subway":"yes"}},
{"type":"Feature","geometry":{"type":"Point","coordinates":[121.3796608,31.2935449]},"properties":{"name":"祁安路","name:en":"Qi'an Road","name:zh":"祁安路","network":"上海地铁","network:en":"Shanghai Metro","public_transport":"stop_position","railway":"stop","subway":"yes"}},
{"type":"Feature","geometry":{"type":"Point","coordinates":[121.3834924,31.3177885]},"properties":{"amenity":"cafe","brand":"蜜雪冰城","brand:en":"MIXUEBINGCHENG","brand:wikidata":"Q107406476","brand:zh":"蜜雪冰城","cuisine":"ice_cream;bubble_tea","name":"蜜雪冰城","name:en":"MIXUEBINGCHENG","name:zh":"蜜雪冰城","takeaway":"yes"}},
{"type":"Feature","geometry":{"type":"Point","coordinates":[121.3831637,31.3176303]},"properties":{"name":"加宋图文","shop":"copyshop"}},
{"type":"Feature","geometry":{"type":"Point","coordinates":[121.3831973,31.3180078]},"properties":{"amenity":"post_office","brand":"菜鸟驿站","brand:en":"CAI NIAO","brand:wikidata":"Q16947973","brand:wikipedia":"zh:菜鸟网络","brand:zh":"菜鸟驿站","name":"菜鸟驿站","name:en":"CAI NIAO","name:zh":"菜鸟驿站"}},
{"type":"Feature","geometry":{"type":"Point","coordinates":[121.3933079,31.3163534]},"properties":{"amenity":"post_office"}},
{"type":"Feature","geometry":{"type":"Point","coordinates":[121.3938142,31.3164285]},"properties":{"branch":"上大东区服务点","brand":"飞牛便利","name":"飞牛便利","shop":"convenience"}},
{"type":"Feature","geometry":{"type":"Point","coordinates":[121.39413,31.3150519]},"properties":{"faculty":"management","name":"上海大学管理学院"}},
{"type":"Feature","geometry":{"type":"Point","coordinates":[121.3945001,31.3150702]},"properties":{"faculty":"economics","name":"上海大学经济学院"}},
{"type":"Feature","geometry":{"type":"Point","coordinates":[121.3951197,31.3185131]},"properties":{"amenity":"parking_entrance","parking":"underground"}},
{"type":"Feature","geometry":{"type":"Point","coordinates":[121.3952612,31.3152845]},"properties":{"amenity":"parking_entrance","parking":"underground"}},
{"type":"Feature","geometry":{"type":"Point","coordinates":[121.3889453,31.3175169]},"properties":{"leaf_cycle":"evergreen","leaf_type":"broadleaved","natural":"tree"}},
{"type":"Feature","geometry":{"type":"Point","coordinates":[121.3882995,31.3177243]},"properties":{"leaf_cycle":"evergreen","leaf_type":"broadleaved","natural":"tree"}},
{"type":"Feature","geometry":{"type":"Point","coordinates":[121.388386,31.3176086]},"properties":{"leaf_cycle":"evergreen","leaf_type":"broadleaved","natural":"tree"}},
{"type":"Feature","geometry":{"type":"Point","coordinates":[121.3884618,31.3175092]},"properties":{"leaf_cycle":"evergreen","leaf_type":"broadleaved","natural":"tree"}},
{"type":"Feature","geometry":{"type":"Point","coordinates":[121.3938443,31.3201434]},"properties":{"barrier":"bollard","bollard":"rising","material":"metal"}},
{"type":"Feature","geometry":{"type":"Point","coordinates":[121.3938981,31.3160558]},"properties":{"historic":"memorial","inscription":"钱伟长 (1912.10.9-2010.7.30)","memorial":"statue","name":"钱伟长","start_date":"2018-10-09"}},
{"type":"Feature","geometry":{"type":"Point","coordinates":[121.3942362,31.3171779]},"properties":{"barrier":"bollard","bollard":"rising","material":"metal","maxwidth:physical":"1"}},
{"type":"Feature","geometry":{"type":"Point","coordinates":[121.393898,31.316515]},"properties":{"amenity":"restaurant","level":"1","name":"锦心餐厅"}},
{"type":"Feature","geometry":{"type":"Point","coordinates":[121.3840221,31.3194812]},"properties":{"amenity":"restaurant","level":"2","name":"清真餐厅"}},
{"type":"Feature","geometry":{"type":"Point","coordinates":[121.3841481,31.3194812]},"properties":{"amenity":"restaurant","level":"0","name":"山明餐厅"}},
{"type":"Feature","geometry":{"type":"Point","coordinates":[121.3841575,31.3193827]},"properties":{"amenity":"restaurant","level":"1","name":"赞贤餐厅"}},
{"type":"Feature","geometry":{"type":"Point","coordinates":[121.384761,31.317938]},"properties":{"amenity":"restaurant","level":"0","name":"益新餐厅"}},
{"type":"Feature","geometry":{"type":"Point","coordinates":[121.3846068,31.317883]},"properties":{"amenity":"restaurant","level":"1","name":"良友餐厅"}},
{"type":"Feature","geometry":{"type":"Point","coordinates":[121.3849595,31.3169807]},"properties":{"amenity":"waste_disposal","opening_hours":"7:00-9:00;11:30-13:30;16:00-18:00"}},
{"type":"Feature","geometry":{"type":"Point","coordinates":[121.3851774,31.3165356]},"properties":{"amenity":"waste_disposal","opening_hours":"7:00-9:00;11:30-13:30;16:00-18:00"}},
{"type":"Feature","geometry":{"type":"Point","coordinates":[121.3902468,31.317219]},"properties":{"leaf_cycle":"evergreen","leaf_type":"needleleaved","natural":"tree"}},
{"type":"Feature","geometry":{"type":"Point","coordinates":[121.3900638,31.3170901]},"properties":{"leaf_cycle":"evergreen","leaf_type":"needleleaved","natural":"tree"}},
{"type":"Feature","geometry":{"type":"Point","coordinates":[121.3901335,31.317156]},"properties":{"leaf_cycle":"evergreen","leaf_type":"needleleaved","natural":"tree"}},
{"type":"Feature","geometry":{"type":"Point","coordinates":[121.3899887,31.3170987]},"properties":{"leaf_cycle":"evergreen","leaf_type":"needleleaved","natural":"tree"}},
{"type":"Feature","geometry":{"type":"Point","coordinates":[121.3900618,31.3171686]},"properties":{"leaf_cycle":"evergreen","leaf_type":"needleleaved","natural":"tree"}},
{"type":"Feature","geometry":{"type":"Point","coordinates":[121.3896869,31.3170168]},"properties":{"leaf_cycle":"evergreen","leaf_type":"needleleaved","natural":"tree"}},
{"type":"Feature","geometry":{"type":"Point","coordinates":[121.3896212,31.3170214]},"properties":{"leaf_cycle":"evergreen","leaf_type":"needleleaved","natural":"tree"}},
{"type":"Feature","geometry":{"type":"Point","coordinates":[121.3895508,31.3170162]},"properties":{"leaf_cycle":"evergreen","leaf_type":"needleleaved","natural":"tree"}},
{"type":"Feature","geometry":{"type":"Point","coordinates":[121.3908362,31.3170884]},"properties":{"leaf_cycle":"evergreen","leaf_type":"needleleaved","natural":"tree"}},
{"type":"Feature","geometry":{"type":"Point","coordinates":[121.3906954,31.3171079]},"properties":{"leaf_cycle":"evergreen","leaf_type":"needleleaved","natural":"tree"}},
{"type":"Feature","geometry":{"type":"Point","coordinates":[121.3907994,31.3171595]},"properties":{"leaf_cycle":"evergreen","leaf_type":"needleleaved","natural":"tree"}},
{"type":"Feature","geometry":{"type":"Point","coordinates":[121.390737,31.3170781]},"properties":{"leaf_cycle":"evergreen","leaf_type":"needleleaved","natural":"tree"}},
{"type":"Feature","geometry":{"type":"Point","coordinates":[121.3902696,31.3168513]},"properties":{"leaf_cycle":"evergreen","leaf_type":"needleleaved","natural":"tree"}},
{"type":"Feature","geometry":{"type":"Point","coordinates":[121.390169,31.316818]},"properties":{"leaf_cycle":"evergreen","leaf_type":"needleleaved","natural":"tree"}},
{"type":"Feature","geometry":{"type":"Point","coordinates":[121.3903447,31.316853]},"properties":{"leaf_cycle":"evergreen","leaf_type":"needleleaved","natural":"tree"}},
{"type":"Feature","geometry":{"type":"Point","coordinates":[121.390454,31.3169292]},"properties":{"leaf_cycle":"evergreen","leaf_type":"needleleaved","natural":"tree"}},
{"type":"Feature","geometry":{"type":"Point","coordinates":[121.3905586,31.3169801]},"properties":{"leaf_cycle":"evergreen","leaf_type":"needleleaved","natural":"tree"}},
{"type":"Feature","geometry":{"type":"Point","coordinates":[121.3907477,31.3171365]},"properties":{"leaf_cycle":"evergreen","leaf_type":"needleleaved","natural":"tree"}},
{"type":"Feature","geometry":{"type":"Point","coordinates":[121.390615,31.3171411]},"properties":{"leaf_cycle":"evergreen","leaf_type":"needleleaved","natural":"tree"}},
{"type":"Feature","geometry":{"type":"Point","coordinates":[121.3908121,31.3171646]},"properties":{"leaf_cycle":"evergreen","leaf_type":"needleleaved","natural":"tree"}},
{"type":"Feature","geometry":{"type":"Point","coordinates":[121.390458,31.3170844]},"properties":{"leaf_cycle":"evergreen","leaf_type":"needleleaved","natural":"tree"}},
{"type":"Feature","geometry":{"type":"Point","coordinates":[121.3905231,31.3171692]},"properties":{"leaf_cycle":"evergreen","leaf_type":"needleleaved","natural":"tree"}},
{"type":"Feature","geometry":{"type":"Point","coordinates":[121.3897794,31.3169555]},"properties":{"leaf_cycle":"evergreen","leaf_type":"needleleaved","natural":"tree"}},
{"type":"Feature","geometry":{"type":"Point","coordinates":[121.3899984,31.3168238]},"properties":{"leaf_cycle":"evergreen","leaf_type":"needleleaved","natural":"tree"}},
{"type":"Feature","geometry":{"type":"Point","coordinates":[121.3899303,31.3168312]},"properties":{"leaf_cycle":"evergreen","leaf_type":"needleleaved","natural":"tree"}},
{"type":"Feature","geometry":{"type":"Point","coordinates":[121.382974,31.3191598]},"properties":{"amenity":"post_office","brand":"顺丰速运","name":"顺丰"}},
{"type":"Feature","geometry":{"type":"Point","coordinates":[121.3850219,31.3169148]},"properties":{"amenity":"vending_machine","vending":"drinks"}},
{"type":"Feature","geometry":{"type":"Point","coordinates":[121.3851077,31.3169882]},"properties":{"amenity":"vending_machine","vending":"drinks"}},
{"type":"Feature","geometry":{"type":"Point","coordinates":[121.4041843,31.3190567]},"properties":{"amenity":"parking_entrance","parking":"underground"}},
{"type":"Feature","geometry":{"type":"Point","coordinates":[121.4060712,31.3195179]},"properties":{"amenity":"parking_entrance","parking":"underground"}},
{"type":"Feature","geometry":{"type":"Point","coordinates":[121.3926759,31.3215148]},"properties":{"distance":"4","highway":"milestone"}},
{"type":"Feature","geometry":{"type":"Point","coordinates":[121.3907915,31.3204632]},"properties":{"natural":"shrub"}},
{"type":"Feature","geometry":{"type":"Point","coordinates":[121.3908086,31.3201988]},"properties":{"natural":"shrub"}},
{"type":"Feature","geometry":{"type":"Point","coordinates":[121.3908003,31.3203279]},"properties":{"natural":"shrub"}},
{"type":"Feature","geometry":{"type":"Point","coordinates":[121.3941545,31.3192366]},"properties":{"leaf_type":"broadleaved","natural":"tree"}},
{"type":"Feature","geometry":{"type":"Point","coordinates":[121.3941011,31.3192366]},"properties":{"leaf_type":"broadleaved","natural":"tree"}},
{"type":"Feature","geometry":{"type":"Point","coordinates":[121.3941025,31.3192098]},"properties":{"leaf_type":"broadleaved","natural":"tree"}},
{"type":"Feature","geometry":{"type":"Point","coordinates":[121.3940998,31.319262]},"properties":{"leaf_type":"broadleaved","natural":"tree"}},
{"type":"Feature","geometry":{"type":"Point","coordinates":[121.3940603,31.3192612]},"properties":{"leaf_type":"broadleaved","natural":"tree"}},
{"type":"Feature","geometry":{"type":"Point","coordinates":[121.3940629,31.3192103]},"properties":{"leaf_type":"broadleaved","natural":"tree"}},
{"type":"Feature","geometry":{"type":"Point","coordinates":[121.3941541,31.3192091]},"properties":{"leaf_type":"broadleaved","natural":"tree"}},
{"type":"Feature","geometry":{"type":"Point","coordinates":[121.3941548,31.319263]},"properties":{"leaf_type":"broadleaved","natural":"tree"}},
{"type":"Feature","geometry":{"type":"Point","coordinates":[121.3941106,31.319092]},"properties":{"leaf_type":"broadleaved","natural":"tree"}},
{"type":"Feature","geometry":{"type":"Point","coordinates":[121.3941092,31.3191244]},"properties":{"leaf_type":"broadleaved","natural":"tree"}},
{"type":"Feature","geometry":{"type":"Point","coordinates":[121.3941584,31.3190905]},"properties":{"leaf_type":"broadleaved","natural":"tree"}},
{"type":"Feature","geometry":{"type":"Point","coordinates":[121.3940676,31.3190934]},"properties":{"leaf_type":"broadleaved","natural":"tree"}},
{"type":"Feature","geometry":{"type":"Point","coordinates":[121.3941595,31.3190521]},"properties":{"leaf_type":"broadleaved","natural":"tree"}},
{"type":"Feature","geometry":{"type":"Point","coordinates":[121.3941575,31.3191232]},"properties":{"leaf_type":"broadleaved","natural":"tree"}},
{"type":"Feature","geometry":{"type":"Point","coordinates":[121.3940649,31.3191255]},"properties":{"leaf_type":"broadleaved","natural":"tree"}},
{"type":"Feature","geometry":{"type":"Point","coordinates":[121.3941326,31.3194626]},"properties":{"leaf_type":"broadleaved","natural":"tree"}},
{"type":"Feature","geometry":{"type":"Point","coordinates":[121.3940492,31.319336]},"properties":{"leaf_type":"broadleaved","natural":"tree"}},
{"type":"Feature","geometry":{"type":"Point","coordinates":[121.3941352,31.3194263]},"properties":{"leaf_type":"broadleaved","natural":"tree"}},
{"type":"Feature","geometry":{"type":"Point","coordinates":[121.3940893,31.3193402]},"properties":{"leaf_type":"broadleaved","natural":"tree"}},
{"type":"Feature","geometry":{"type":"Point","coordinates":[121.3941382,31.3193854]},"properties":{"leaf_type":"broadleaved","natural":"tree"}},
{"type":"Feature","geometry":{"type":"Point","coordinates":[121.3940846,31.3194246]},"properties":{"leaf_type":"broadleaved","natural":"tree"}},
{"type":"Feature","geometry":{"type":"Point","coordinates":[121.3940419,31.3194596]},"properties":{"leaf_type":"broadleaved","natural":"tree"}},
{"type":"Feature","geometry":{"type":"Point","coordinates":[121.3940869,31.3193837]},"properties":{"leaf_type":"broadleaved","natural":"tree"}},
{"type":"Feature","geometry":{"type":"Point","coordinates":[121.3941411,31.3193457]},"properties":{"leaf_type":"broadleaved","natural":"tree"}},
{"type":"Feature","geometry":{"type":"Point","coordinates":[121.3940443,31.3194232]},"properties":{"leaf_type":"broadleaved","natural":"tree"}},
{"type":"Feature","geometry":{"type":"Point","coordinates":[121.3940462,31.3193823]},"properties":{"leaf_type":"broadleaved","natural":"tree"}},
{"type":"Feature","geometry":{"type":"Point","coordinates":[121.3940826,31.3194609]},"properties":{"leaf_type":"broadleaved","natural":"tree"}},
{"type":"Feature","geometry":{"type":"Point","coordinates":[121.3940611,31.3196996]},"properties":{"leaf_type":"broadleaved","natural":"tree"}},
{"type":"Feature","geometry":{"type":"Point","coordinates":[121.3940588,31.3197405]},"properties":{"leaf_type":"broadleaved","natural":"tree"}},
{"type":"Feature","geometry":{"type":"Point","coordinates":[121.3940568,31.3197769]},"properties":{"leaf_type":"broadleaved","natural":"tree"}},
{"type":"Feature","geometry":{"type":"Point","coordinates":[121.3940635,31.3196562]},"properties":{"leaf_type":"broadleaved","natural":"tree"}},
{"type":"Feature","geometry":{"type":"Point","coordinates":[121.3940549,31.3198106]},"properties":{"leaf_type":"broadleaved","natural":"tree"}},
{"type":"Feature","geometry":{"type":"Point","coordinates":[121.3941124,31.3197013]},"properties":{"leaf_type":"broadleaved","natural":"tree"}},
{"type":"Feature","geometry":{"type":"Point","coordinates":[121.3940204,31.3196982]},"properties":{"leaf_type":"broadleaved","natural":"tree"}},
{"type":"Feature","geometry":{"type":"Point","coordinates":[121.3940185,31.3197392]},"properties":{"leaf_type":"broadleaved","natural":"tree"}},
{"type":"Feature","geometry":{"type":"Point","coordinates":[121.3941094,31.3197423]},"properties":{"leaf_type":"broadleaved","natural":"tree"}},
{"type":"Feature","geometry":{"type":"Point","coordinates":[121.3941068,31.3197785]},"properties":{"leaf_type":"broadleaved","natural":"tree"}},
{"type":"Feature","geometry":{"type":"Point","coordinates":[121.3940161,31.3197755]},"properties":{"leaf_type":"broadleaved","natural":"tree"}},
{"type":"Feature","geometry":{"type":"Point","coordinates":[121.3941045,31.3198106]},"properties":{"leaf_type":"broadleaved","natural":"tree"}},
{"type":"Feature","geometry":{"type":"Point","coordinates":[121.3941152,31.3196617]},"properties":{"leaf_type":"broadleaved","natural":"tree"}},
{"type":"Feature","geometry":{"type":"Point","coordinates":[121.3940234,31.3196519]},"properties":{"leaf_type":"broadleaved","natural":"tree"}},
{"type":"Feature","geometry":{"type":"Point","coordinates":[121.394014,31.3198106]},"properties":{"leaf_type":"broadleaved","natural":"tree"}},
{"type":"Feature","geometry":{"type":"Point","coordinates":[121.3940436,31.3200003]},"properties":{"leaf_type":"broadleaved","natural":"tree"}},
{"type":"Feature","geometry":{"type":"Point","coordinates":[121.3940879,31.3200077]},"properties":{"leaf_type":"broadleaved","natural":"tree"}},
{"type":"Feature","geometry":{"type":"Point","coordinates":[121.3940417,31.3200358]},"properties":{"leaf_type":"broadleaved","natural":"tree"}},
{"type":"Feature","geometry":{"type":"Point","coordinates":[121.3940396,31.3200727]},"properties":{"leaf_type":"broadleaved","natural":"tree"}},
{"type":"Feature","geometry":{"type":"Point","coordinates":[121.3940372,31.320117]},"properties":{"leaf_type":"broadleaved","natural":"tree"}},
{"type":"Feature","geometry":{"type":"Point","coordinates":[121.3940863,31.3200376]},"properties":{"leaf_type":"broadleaved","natural":"tree"}},
{"type":"Feature","geometry":{"type":"Point","coordinates":[121.3939984,31.3200341]},"properties":{"leaf_type":"broadleaved","natural":"tree"}},
{"type":"Feature","geometry":{"type":"Point","coordinates":[121.3939964,31.320071]},"properties":{"leaf_type":"broadleaved","natural":"tree"}},
{"type":"Feature","geometry":{"type":"Point","coordinates":[121.3940843,31.3200745]},"properties":{"leaf_type":"broadleaved","natural":"tree"}},
{"type":"Feature","geometry":{"type":"Point","coordinates":[121.3940819,31.3201188]},"properties":{"leaf_type":"broadleaved","natural":"tree"}},
{"type":"Feature","geometry":{"type":"Point","coordinates":[121.393994,31.3201153]},"properties":{"leaf_type":"broadleaved","natural":"tree"}},
{"type":"Feature","geometry":{"type":"Point","coordinates":[121.3940347,31.3201639]},"properties":{"leaf_type":"broadleaved","natural":"tree"}},
{"type":"Feature","geometry":{"type":"Point","coordinates":[121.3940793,31.3201657]},"properties":{"leaf_type":"broadleaved","natural":"tree"}},
{"type":"Feature","geometry":{"type":"Point","coordinates":[121.3940006,31.3199932]},"properties":{"leaf_type":"broadleaved","natural":"tree"}},
{"type":"Feature","geometry":{"type":"Point","coordinates":[121.3939914,31.3201622]},"properties":{"leaf_type":"broadleaved","natural":"tree"}},
{"type":"Feature","geometry":{"type":"Point","coordinates":[121.3943801,31.3180966]},"properties":{"artwork_type":"sculpture","tourism":"artwork"}},
{"type":"Feature","geometry":{"type":"Point","coordinates":[121.3951289,31.3177709]},"properties":{"entrance":"yes"}},
{"type":"Feature","geometry":{"type":"Point","coordinates":[121.3945314,31.3176846]},"properties":{"entrance":"yes"}},
{"type":"Feature","geometry":{"type":"Point","coordinates":[121.3914319,31.313813]},"properties":{"bicycle":"yes","entrance":"yes","foot":"yes","motorcar":"yes","motor_vehicle":"yes","name":"南大门"}},
{"type":"Feature","geometry":{"type":"Point","coordinates":[121.3847378,31.3131808]},"properties":{"bicycle":"yes","entrance":"yes","foot":"yes","name":"南二门"}},
{"type":"Feature","geometry":{"type":"Point","coordinates":[121.3929471,31.3160146]},"properties":{"bicycle":"yes","entrance":"yes","foot":"yes","motorcar":"no","name":"东二门"}},
{"type":"Feature","geometry":{"type":"Point","coordinates":[121.392526,31.3201108]},"properties":{"bicycle":"yes","entrance":"yes","foot":"yes","name":"东大门","vehicle":"yes"}},
{"type":"Feature","geometry":{"type":"Point","coordinates":[121.3829854,31.3225722]},"properties":{"amenity":"fast_food","delivery":"yes","name":"麦当劳","name:en":"McDonald's","name:zh":"麦当劳","takeaway":"yes"}},
{"type":"Feature","geometry":{"type":"Point","coordinates":[121.3835011,31.3176475]},"properties":{"amenity":"cafe","cuisine":"juice;fruitmix","name":"芯茶","name:en":"Xintea","name:zh":"芯茶"}},
{"type":"Feature","geometry":{"type":"Point","coordinates":[121.383355,31.3176401]},"properties":{"name":"晨光文具","shop":"stationery"}},
{"type":"Feature","geometry":{"type":"Point","coordinates":[121.3833072,31.3176376]},"properties":{"name":"佳视眼镜","shop":"optician"}},
{"type":"Feature","geometry":{"type":"Point","coordinates":[121.3832594,31.3176352]},"properties":{"amenity":"cafe","name":"瑞幸咖啡"}},
{"type":"Feature","geometry":{"type":"Point","coordinates":[121.3832115,31.3176327]},"properties":{"name":"尚大果品","shop":"greengrocer"}},
{"type":"Feature","geometry":{"type":"Point","coordinates":[121.3834967,31.317718]},"properties":{"name":"BAKERY","shop":"bakery"}},
{"type":"Feature","geometry":{"type":"Point","coordinates":[121.3839832,31.3133379]},"properties":{"amenity":"post_office","brand":"京东物流","brand:en":"JD Logistics","brand:wikidata":"Q67936681","brand:zh":"京东物流","name":"京东","name:en":"JD Logistics","name:zh":"京东物流","short_name":"京东"}},
{"type":"Feature","geometry":{"type":"Point","coordinates":[121.5544253,31.2057597]},"properties":{"railway":"switch"}},
{"type":"Feature","geometry":{"type":"Point","coordinates":[121.4034783,31.2970845]},"properties":{"crossing:bell":"yes","crossing:light":"yes","name":"南何支线K4 南秀路道口","railway":"level_crossing"}},
{"type":"Feature","geometry":{"type":"Point","coordinates":[121.3947636,31.3179177]},"properties":{"amenity":"waste_disposal"}},
{"type":"Feature","geometry":{"type":"Point","coordinates":[121.3874569,31.2765501]},"properties":{"name":"武威东路","name:en":"East Wuwei Road","public_transport":"stop_position","railway":"stop","subway":"yes"}},
{"type":"Feature","geometry":{"type":"Point","coordinates":[121.385818,31.320316300000003]},"properties":{"leaf_cycle":"evergreen","leaf_type":"broadleaved","natural":"tree"}},
{"type":"Feature","geometry":{"type":"Point","coordinates":[121.3771248,31.3186724]},"properties":{"bus":"yes","highway":"bus_stop","name":"祁连二村","name:zh":"祁连二村","public_transport":"platform"}},
{"type":"Feature","geometry":{"type":"Point","coordinates":[121.3768646,31.3194354]},"properties":{"bus":"yes","highway":"bus_stop","name":"祁连二村","name:zh":"祁连二村","public_transport":"platform"}},
{"type":"Feature","geometry":{"type":"Point","coordinates":[121.3769236,31.3194308]},"properties":{"bus":"yes","name":"祁连二村","name:zh":"祁连二村","public_transport":"stop_position"}},
{"type":"Feature","geometry":{"type":"Point","coordinates":[121.3814941,31.3219719]},"properties":{"bus":"yes","highway":"bus_stop","name":"锦秋路瑞康路","name:zh":"锦秋路瑞康路","public_transport":"platform"}},
{"type":"Feature","geometry":{"type":"Point","coordinates":[121.3815156,31.3219054]},"properties":{"bus":"yes","name":"锦秋路瑞康路","name:zh":"锦秋路瑞康路","public_transport":"stop_position"}},
{"type":"Feature","geometry":{"type":"Point","coordinates":[121.3812286,31.3220796]},"properties":{"bus":"yes","highway":"bus_stop","name":"上海大学","name:zh":"上海大学","public_transport":"platform"}},
{"type":"Feature","geometry":{"type":"Point","coordinates":[121.3757676,31.3026886]},"properties":{"bus":"yes","name":"祁连山路南大路","name:zh":"祁连山路南大路","public_transport":"stop_position"}},
{"type":"Feature","geometry":{"type":"Point","coordinates":[121.3765041,31.3115949]},"properties":{"bus":"yes","name":"祁连山路丰翔路","name:zh":"祁连山路丰翔路","public_transport":"stop_position"}},
{"type":"Feature","geometry":{"type":"Point","coordinates":[121.3766404,31.3115999]},"properties":{"bus":"yes","highway":"bus_stop","name":"祁连山路丰翔路","name:zh":"祁连山路丰翔路","public_transport":"platform"}},
{"type":"Feature","geometry":{"type":"Point","coordinates":[121.3762879,31.3113797]},"properties":{"bus":"yes","highway":"bus_stop","name":"祁连山路丰翔路","name:zh":"祁连山路丰翔路","public_transport":"platform"}},
{"type":"Feature","geometry":{"type":"Point","coordinates":[121.376377,31.311377]},"properties":{"bus":"yes","name":"祁连山路丰翔路","name:zh":"祁连山路丰翔路","public_transport":"stop_position"}},
{"type":"Feature","geometry":{"type":"Point","coordinates":[121.3768001,31.3145772]},"properties":{"bus":"yes","highway":"bus_stop","name":"祁连新村","name:zh":"祁连新村","public_transport":"platform"}},
{"type":"Feature","geometry":{"type":"Point","coordinates":[121.3764206,31.3153311]},"properties":{"bus":"yes","highway":"bus_stop","name":"祁连新村","name:zh":"祁连新村","public_transport":"platform"}},
{"type":"Feature","geometry":{"type":"Point","coordinates":[121.3764986,31.3153318]},"properties":{"bus":"yes","name":"祁连新村","name:zh":"祁连新村","public_transport":"stop_position"}},
{"type":"Feature","geometry":{"type":"Point","coordinates":[121.3766795,31.3153257]},"properties":{"bus":"yes","name":"祁连新村","name:zh":"祁连新村","public_transport":"stop_position"}},
{"type":"Feature","geometry":{"type":"Point","coordinates":[121.3770255,31.3186701]},"properties":{"bus":"yes","name":"祁连二村","name:zh":"祁连二村","public_transport":"stop_position"}},
{"type":"Feature","geometry":{"type":"Point","coordinates":[121.381246,31.32202]},"properties":{"bus":"yes","name":"上海大学","name:zh":"上海大学","public_transport":"stop_position"}},
{"type":"Feature","geometry":{"type":"Point","coordinates":[121.390686,31.3013342]},"properties":{"bus":"yes","name":"南大路南陈路","name:zh":"南大路南陈路","public_transport":"stop_position"}},
{"type":"Feature","geometry":{"type":"Point","coordinates":[121.3906726,31.3014052]},"properties":{"bus":"yes","highway":"bus_stop","name":"南大路南陈路","name:zh":"南大路南陈路","public_transport":"platform"}},
{"type":"Feature","geometry":{"type":"Point","coordinates":[121.3908067,31.3012883]},"properties":{"bus":"yes","highway":"bus_stop","name":"南大路南陈路","name:zh":"南大路南陈路","public_transport":"platform"}},
{"type":"Feature","geometry":{"type":"Point","coordinates":[121.3907987,31.3013342]},"properties":{"bus":"yes","name":"南大路南陈路","name:zh":"南大路南陈路","public_transport":"stop_position"}},
{"type":"Feature","geometry":{"type":"Point","coordinates":[121.3845223,31.3016642]},"properties":{"bus":"yes","name":"南大路桃浦车站","name:zh":"南大路桃浦车站","public_transport":"stop_position"}},
{"type":"Feature","geometry":{"type":"Point","coordinates":[121.3845223,31.3017467]},"properties":{"bus":"yes","highway":"bus_stop","name":"南大路桃浦车站","name:zh":"南大路桃浦车站","public_transport":"platform"}},
{"type":"Feature","geometry":{"type":"Point","coordinates":[121.3842648,31.3015908]},"properties":{"bus":"yes","highway":"bus_stop","name":"南大路桃浦车站","name:zh":"南大路桃浦车站","public_transport":"platform"}},
{"type":"Feature","geometry":{"type":"Point","coordinates":[121.3758507,31.3023861]},"properties":{"bus":"yes","name":"祁连山路南大路","name:zh":"祁连山路南大路","public_transport":"stop_position"}},
{"type":"Feature","geometry":{"type":"Point","coordinates":[121.375946,31.3023884]},"properties":{"bus":"yes","highway":"bus_stop","name":"祁连山路南大路","name:zh":"祁连山路南大路","public_transport":"platform"}},
{"type":"Feature","geometry":{"type":"Point","coordinates":[121.3756791,31.3026794]},"properties":{"bus":"yes","highway":"bus_stop","name":"祁连山路南大路","name:zh":"祁连山路南大路","public_transport":"platform"}},
{"type":"Feature","geometry":{"type":"Point","coordinates":[121.3767493,31.3145799]},"properties":{"bus":"yes","name":"祁连新村","name:zh":"祁连新村","public_transport":"stop_position"}},
{"type":"Feature","geometry":{"type":"Point","coordinates":[121.4137798,31.3017971]},"properties":{"bus":"yes","highway":"bus_stop","name":"沪太支路守仁桥街","name:zh":"沪太支路守仁桥街","public_transport":"platform"}},
{"type":"Feature","geometry":{"type":"Point","coordinates":[121.4131039,31.3019117]},"properties":{"bus":"yes","highway":"bus_stop","name":"沪太支路守仁桥街","name:zh":"沪太支路守仁桥街","public_transport":"platform"}},
{"type":"Feature","geometry":{"type":"Point","coordinates":[121.4131093,31.3018131]},"properties":{"bus":"yes","name":"沪太支路守仁桥街","name:zh":"沪太支路守仁桥街","public_transport":"stop_position"}},
{"type":"Feature","geometry":{"type":"Point","coordinates":[121.4137718,31.3018796]},"properties":{"bus":"yes","name":"沪太支路守仁桥街","name:zh":"沪太支路守仁桥街","public_transport":"stop_position"}},
{"type":"Feature","geometry":{"type":"Point","coordinates":[121.4140105,31.303477]},"properties":{"bus":"yes","name":"守仁桥街场中路","name:zh":"守仁桥街场中路","public_transport":"stop_position"}},
{"type":"Feature","geometry":{"type":"Point","coordinates":[121.41404,31.3033601]},"properties":{"bus":"yes","name":"守仁桥街场中路","name:zh":"守仁桥街场中路","public_transport":"stop_position"}},
{"type":"Feature","geometry":{"type":"Point","coordinates":[121.4141245,31.3034724]},"properties":{"bus":"yes","highway":"bus_stop","name":"守仁桥街场中路","name:zh":"守仁桥街场中路","public_transport":"platform"}},
{"type":"Feature","geometry":{"type":"Point","coordinates":[121.4139609,31.3033326]},"properties":{"bus":"yes","highway":"bus_stop","name":"守仁桥街场中路","name:zh":"守仁桥街场中路","public_transport":"platform"}},
{"type":"Feature","geometry":{"type":"Point","coordinates":[121.4106363,31.3016825]},"properties":{"bus":"yes","highway":"bus_stop","name":"沪太支路沪太路","name:zh":"沪太支路沪太路","public_transport":"platform"}},
{"type":"Feature","geometry":{"type":"Point","coordinates":[121.4106497,31.3016298]},"properties":{"bus":"yes","name":"沪太支路沪太路","name:zh":"沪太支路沪太路","public_transport":"stop_position"}},
{"type":"Feature","geometry":{"type":"Point","coordinates":[121.4098746,31.30149]},"properties":{"bus":"yes","highway":"bus_stop","name":"沪太支路沪太路","name:zh":"沪太支路沪太路","public_transport":"platform"}},
{"type":"Feature","geometry":{"type":"Point","coordinates":[121.4098746,31.3015542]},"properties":{"bus":"yes","name":"沪太支路沪太路","name:zh":"沪太支路沪太路","public_transport":"stop_position"}},
{"type":"Feature","geometry":{"type":"Point","coordinates":[121.4027721,31.3013754]},"properties":{"bus":"yes","name":"南大路洛河桥","name:zh":"南大路洛河桥","public_transport":"stop_position"}},
{"type":"Feature","geometry":{"type":"Point","coordinates":[121.4027774,31.3014762]},"properties":{"bus":"yes","highway":"bus_stop","name":"南大路洛河桥","name:zh":"南大路洛河桥","public_transport":"platform"}},
{"type":"Feature","geometry":{"type":"Point","coordinates":[121.4032575,31.3013158]},"properties":{"bus":"yes","highway":"bus_stop","name":"南大路洛河桥","name:zh":"南大路洛河桥","public_transport":"platform"}},
{"type":"Feature","geometry":{"type":"Point","coordinates":[121.4032656,31.3013846]},"properties":{"bus":"yes","name":"南大路洛河桥","name:zh":"南大路洛河桥","public_transport":"stop_position"}},
{"type":"Feature","geometry":{"type":"Point","coordinates":[121.3961577,31.3013639]},"properties":{"bus":"yes","name":"南大路食品公司","name:zh":"南大路食品公司","public_transport":"stop_position"}},
{"type":"Feature","geometry":{"type":"Point","coordinates":[121.396139,31.3014144]},"properties":{"bus":"yes","highway":"bus_stop","name":"南大路食品公司","name:zh":"南大路食品公司","public_transport":"platform"}},
{"type":"Feature","geometry":{"type":"Point","coordinates":[121.395801,31.3013112]},"properties":{"bus":"yes","highway":"bus_stop","name":"南大路食品公司","name:zh":"南大路食品公司","public_transport":"platform"}},
{"type":"Feature","geometry":{"type":"Point","coordinates":[121.3958225,31.3013662]},"properties":{"bus":"yes","name":"南大路食品公司","name:zh":"南大路食品公司","public_transport":"stop_position"}},
{"type":"Feature","geometry":{"type":"Point","coordinates":[121.3813356,31.3099593]},"properties":{"bus":"yes","name":"环镇北路祁连山路","name:zh":"环镇北路祁连山路","public_transport":"stop_position"}},
{"type":"Feature","geometry":{"type":"Point","coordinates":[121.3813359,31.3100105]},"properties":{"bus":"yes","highway":"bus_stop","name":"环镇北路祁连山路","name:zh":"环镇北路祁连山路","public_transport":"platform"}},
{"type":"Feature","geometry":{"type":"Point","coordinates":[121.3775754,31.3099716]},"properties":{"bus":"yes","highway":"bus_stop","name":"环镇北路祁连山路","name:zh":"环镇北路祁连山路","public_transport":"platform"}},
{"type":"Feature","geometry":{"type":"Point","coordinates":[121.3736275,31.3163591]},"properties":{"bus":"yes","name":"聚丰园路瑞丰路","name:zh":"聚丰园路瑞丰路","public_transport":"stop_position"}},
{"type":"Feature","geometry":{"type":"Point","coordinates":[121.3731721,31.3163333]},"properties":{"bus":"yes","name":"聚丰园路瑞丰路","name:zh":"聚丰园路瑞丰路","public_transport":"stop_position"}},
{"type":"Feature","geometry":{"type":"Point","coordinates":[121.3978851,31.3093437]},"properties":{"bus":"yes","name":"乾溪新村","name:zh":"乾溪新村","public_transport":"stop_position"}},
{"type":"Feature","geometry":{"type":"Point","coordinates":[121.3978958,31.3092658]},"properties":{"bus":"yes","highway":"bus_stop","name":"乾溪新村","name:zh":"乾溪新村","public_transport":"platform"}},
{"type":"Feature","geometry":{"type":"Point","coordinates":[121.3985315,31.3093941]},"properties":{"bus":"yes","name":"乾溪新村","name:zh":"乾溪新村","public_transport":"stop_position"}},
{"type":"Feature","geometry":{"type":"Point","coordinates":[121.3985234,31.3094422]},"properties":{"bus":"yes","highway":"bus_stop","name":"乾溪新村","name:zh":"乾溪新村","public_transport":"platform"}},
{"type":"Feature","geometry":{"type":"Point","coordinates":[121.3995078,31.3094674]},"properties":{"bus":"yes","name":"乾溪新村","name:zh":"乾溪新村","public_transport":"stop_position"}},
{"type":"Feature","geometry":{"type":"Point","coordinates":[121.3995185,31.3094055]},"properties":{"bus":"yes","highway":"bus_stop","name":"乾溪新村","name:zh":"乾溪新村","public_transport":"platform"}},
{"type":"Feature","geometry":{"type":"Point","coordinates":[121.3995507,31.309252]},"properties":{"bus":"yes","highway":"bus_stop","name":"乾溪新村","name:zh":"乾溪新村","public_transport":"platform"}},
{"type":"Feature","geometry":{"type":"Point","coordinates":[121.3995427,31.3093024]},"properties":{"bus":"yes","name":"乾溪新村","name:zh":"乾溪新村","public_transport":"stop_position"}},
{"type":"Feature","geometry":{"type":"Point","coordinates":[121.3944756,31.3090909]},"properties":{"bus":"yes","name":"环镇北路南陈路","name:zh":"环镇北路南陈路","public_transport":"stop_position"}},
{"type":"Feature","geometry":{"type":"Point","coordinates":[121.3944706,31.3091328]},"properties":{"bus":"yes","highway":"bus_stop","name":"环镇北路南陈路","name:zh":"环镇北路南陈路","public_transport":"platform"}},
{"type":"Feature","geometry":{"type":"Point","coordinates":[121.3943794,31.309032]},"properties":{"bus":"yes","highway":"bus_stop","name":"环镇北路南陈路","name:zh":"环镇北路南陈路","public_transport":"platform"}},
{"type":"Feature","geometry":{"type":"Point","coordinates":[121.3943873,31.3090847]},"properties":{"bus":"yes","name":"环镇北路南陈路","name:zh":"环镇北路南陈路","public_transport":"stop_position"}},
{"type":"Feature","geometry":{"type":"Point","coordinates":[121.3876525,31.3095957]},"properties":{"bus":"yes","name":"环镇北路文海路","name:zh":"环镇北路文海路","public_transport":"stop_position"}},
{"type":"Feature","geometry":{"type":"Point","coordinates":[121.3876525,31.3096576]},"properties":{"bus":"yes","highway":"bus_stop","name":"环镇北路文海路","name:zh":"环镇北路文海路","public_transport":"platform"}},
{"type":"Feature","geometry":{"type":"Point","coordinates":[121.3868129,31.3094262]},"properties":{"bus":"yes","highway":"bus_stop","name":"环镇北路文海路","name:zh":"环镇北路文海路","public_transport":"platform"}},
{"type":"Feature","geometry":{"type":"Point","coordinates":[121.3868344,31.3094949]},"properties":{"bus":"yes","name":"环镇北路文海路","name:zh":"环镇北路文海路","public_transport":"stop_position"}},
{"type":"Feature","geometry":{"type":"Point","coordinates":[121.4067739,31.3047008]},"properties":{"bus":"yes","highway":"bus_stop","name":"场联路乾溪路","name:zh":"场联路乾溪路","public_transport":"platform"}},
{"type":"Feature","geometry":{"type":"Point","coordinates":[121.4068533,31.3047007]},"properties":{"bus":"yes","name":"场联路乾溪路","name:zh":"场联路乾溪路","public_transport":"stop_position"}},
{"type":"Feature","geometry":{"type":"Point","coordinates":[121.4068606,31.3050312]},"properties":{"bus":"yes","name":"场联路乾溪路","name:zh":"场联路乾溪路","public_transport":"stop_position"}},
{"type":"Feature","geometry":{"type":"Point","coordinates":[121.4069456,31.3050308]},"properties":{"bus":"yes","highway":"bus_stop","name":"场联路乾溪路","name:zh":"场联路乾溪路","public_transport":"platform"}},
{"type":"Feature","geometry":{"type":"Point","coordinates":[121.4054543,31.3093024]},"properties":{"bus":"yes","highway":"bus_stop","name":"场联路环镇北路","name:zh":"场联路环镇北路","public_transport":"platform"}},
{"type":"Feature","geometry":{"type":"Point","coordinates":[121.4055669,31.3094628]},"properties":{"bus":"yes","highway":"bus_stop","name":"场联路环镇北路","name:zh":"场联路环镇北路","public_transport":"platform"}},
{"type":"Feature","geometry":{"type":"Point","coordinates":[121.4054972,31.3093024]},"properties":{"bus":"yes","name":"场联路环镇北路","name:zh":"场联路环镇北路","public_transport":"stop_position"}},
{"type":"Feature","geometry":{"type":"Point","coordinates":[121.4028525,31.3096714]},"properties":{"bus":"yes","highway":"bus_stop","name":"环镇北路场联路","name:zh":"环镇北路场联路","public_transport":"platform"}},
{"type":"Feature","geometry":{"type":"Point","coordinates":[121.4028457,31.3097334]},"properties":{"bus":"yes","name":"环镇北路场联路","name:zh":"环镇北路场联路","public_transport":"stop_position"}},
{"type":"Feature","geometry":{"type":"Point","coordinates":[121.4030521,31.30975]},"properties":{"bus":"yes","name":"环镇北路场联路","name:zh":"环镇北路场联路","public_transport":"stop_position"}},
{"type":"Feature","geometry":{"type":"Point","coordinates":[121.403051,31.3097951]},"properties":{"bus":"yes","highway":"bus_stop","name":"环镇北路场联路","name:zh":"环镇北路场联路","public_transport":"platform"}},
{"type":"Feature","geometry":{"type":"Point","coordinates":[121.418176,31.3048703]},"properties":{"bus":"yes","highway":"bus_stop","name":"场中路守仁桥街","name:zh":"场中路守仁桥街","public_transport":"platform"}},
{"type":"Feature","geometry":{"type":"Point","coordinates":[121.418176,31.3048222]},"properties":{"bus":"yes","name":"场中路守仁桥街","name:zh":"场中路守仁桥街","public_transport":"stop_position"}},
{"type":"Feature","geometry":{"type":"Point","coordinates":[121.4222395,31.3048726]},"properties":{"bus":"yes","highway":"bus_stop","name":"少年村路","name:zh":"少年村路","public_transport":"platform"}},
{"type":"Feature","geometry":{"type":"Point","coordinates":[121.4229155,31.3051568]},"properties":{"bus":"yes","highway":"bus_stop","name":"少年村路","name:zh":"少年村路","public_transport":"platform"}},
{"type":"Feature","geometry":{"type":"Point","coordinates":[121.4229208,31.3050697]},"properties":{"bus":"yes","name":"少年村路","name:zh":"少年村路","public_transport":"stop_position"}},
{"type":"Feature","geometry":{"type":"Point","coordinates":[121.3790399,31.3126458]},"properties":{"bus":"yes","highway":"bus_stop","name":"上大路祁连山路","name:zh":"上大路祁连山路","public_transport":"platform"}},
{"type":"Feature","geometry":{"type":"Point","coordinates":[121.3790345,31.3127283]},"properties":{"bus":"yes","name":"上大路祁连山路","name:zh":"上大路祁连山路","public_transport":"stop_position"}},
{"type":"Feature","geometry":{"type":"Point","coordinates":[121.3906646,31.3133493]},"properties":{"bus":"yes","name":"上海大学","name:zh":"上海大学","public_transport":"stop_position"}},
{"type":"Feature","geometry":{"type":"Point","coordinates":[121.3906699,31.3132829]},"properties":{"bus":"yes","highway":"bus_stop","name":"上海大学","name:zh":"上海大学","public_transport":"platform"}},
{"type":"Feature","geometry":{"type":"Point","coordinates":[121.3898304,31.3134158]},"properties":{"bus":"yes","name":"上海大学","name:zh":"上海大学","public_transport":"stop_position"}},
{"type":"Feature","geometry":{"type":"Point","coordinates":[121.3898324,31.3134754]},"properties":{"bus":"yes","highway":"bus_stop","name":"上海大学","name:zh":"上海大学","public_transport":"platform"}},
{"type":"Feature","geometry":{"type":"Point","coordinates":[121.3936043,31.309841]},"properties":{"bus":"yes","name":"南陈路环镇北路","name:zh":"南陈路环镇北路","public_transport":"stop_position"}},
{"type":"Feature","geometry":{"type":"Point","coordinates":[121.3937223,31.3098272]},"properties":{"bus":"yes","highway":"bus_stop","name":"南陈路环镇北路","name:zh":"南陈路环镇北路","public_transport":"platform"}},
{"type":"Feature","geometry":{"type":"Point","coordinates":[121.3934916,31.310148]},"properties":{"bus":"yes","highway":"bus_stop","name":"南陈路环镇北路","name:zh":"南陈路环镇北路","public_transport":"platform"}},
{"type":"Feature","geometry":{"type":"Point","coordinates":[121.3935828,31.310148]},"properties":{"bus":"yes","name":"南陈路环镇北路","name:zh":"南陈路环镇北路","public_transport":"stop_position"}},
{"type":"Feature","geometry":{"type":"Point","coordinates":[121.4107677,31.3045266]},"properties":{"bus":"yes","highway":"bus_stop","name":"场中路沪太路","name:zh":"场中路沪太路","public_transport":"platform"}},
{"type":"Feature","geometry":{"type":"Point","coordinates":[121.4106122,31.3043318]},"properties":{"bus":"yes","highway":"bus_stop","name":"场中路沪太路","name:zh":"场中路沪太路","public_transport":"platform"}},
{"type":"Feature","geometry":{"type":"Point","coordinates":[121.4106068,31.3043914]},"properties":{"bus":"yes","name":"场中路沪太路","name:zh":"场中路沪太路","public_transport":"stop_position"}},
{"type":"Feature","geometry":{"type":"Point","coordinates":[121.4168215,31.3046801]},"properties":{"bus":"yes","name":"场中路守仁桥街","name:zh":"场中路守仁桥街","public_transport":"stop_position"}},
{"type":"Feature","geometry":{"type":"Point","coordinates":[121.4168215,31.3046297]},"properties":{"bus":"yes","highway":"bus_stop","name":"场中路守仁桥街","name:zh":"场中路守仁桥街","public_transport":"platform"}},
{"type":"Feature","geometry":{"type":"Point","coordinates":[121.3793939,31.3127467]},"properties":{"bus":"yes","name":"上大路祁连山路","name:zh":"上大路祁连山路","public_transport":"stop_position"}},
{"type":"Feature","geometry":{"type":"Point","coordinates":[121.3793778,31.3128291]},"properties":{"bus":"yes","highway":"bus_stop","name":"上大路祁连山路","name:zh":"上大路祁连山路","public_transport":"platform"}},
{"type":"Feature","geometry":{"type":"Point","coordinates":[121.4222449,31.3049391]},"properties":{"bus":"yes","name":"少年村路","name:zh":"少年村路","public_transport":"stop_position"}},
{"type":"Feature","geometry":{"type":"Point","coordinates":[121.4147923,31.3235387]},"properties":{"crossing":"uncontrolled","crossing:markings":"yes","highway":"crossing"}},
{"type":"Feature","geometry":{"type":"Point","coordinates":[121.4147315,31.3238461]},"properties":{"crossing":"uncontrolled","crossing:markings":"yes","highway":"crossing"}},
{"type":"Feature","geometry":{"type":"Point","coordinates":[121.4147735,31.3236446]},"properties":{"crossing":"uncontrolled","crossing:markings":"yes","highway":"crossing"}},
{"type":"Feature","geometry":{"type":"Point","coordinates":[121.4229839,31.3171915]},"properties":{"barrier":"gate"}},
{"type":"Feature","geometry":{"type":"Point","coordinates":[121.4187081,31.3220591]},"properties":{"bus":"yes","highway":"bus_stop","name":"共康路长康路","public_transport":"platform"}},
{"type":"Feature","geometry":{"type":"Point","coordinates":[121.3764125,31.3213499]},"properties":{"name":"祁连","name:en":"Qilian","place":"village"}},
{"type":"Feature","geometry":{"type":"Point","coordinates":[121.3999202,31.3354656]},"properties":{"bus":"yes","name":"沪太路塘桥","name:zh":"沪太路塘桥","public_transport":"stop_position"}},
{"type":"Feature","geometry":{"type":"Point","coordinates":[121.399048,31.3372993]},"properties":{"bus":"yes","name":"沪太路塘桥","name:zh":"沪太路塘桥","public_transport":"stop_position"}},
{"type":"Feature","geometry":{"type":"Point","coordinates":[121.401417,31.3314207]},"properties":{"bus":"yes","name":"东方国贸","name:zh":"东方国贸","public_transport":"stop_position"}},
{"type":"Feature","geometry":{"type":"Point","coordinates":[121.4012898,31.3313406]},"properties":{"bus":"yes","name":"东方国贸","name:zh":"东方国贸","public_transport":"stop_position"}},
{"type":"Feature","geometry":{"type":"Point","coordinates":[121.4015061,31.3314253]},"properties":{"bus":"yes","highway":"bus_stop","name":"东方国贸","name:zh":"东方国贸","public_transport":"platform"}},
{"type":"Feature","geometry":{"type":"Point","coordinates":[121.4012217,31.3313222]},"properties":{"bus":"yes","highway":"bus_stop","name":"东方国贸","name:zh":"东方国贸","public_transport":"platform"}},
{"type":"Feature","geometry":{"type":"Point","coordinates":[121.4024776,31.324557]},"properties":{"bus":"yes","name":"沪太路锦秋路","name:zh":"沪太路锦秋路","public_transport":"stop_position"}},
{"type":"Feature","geometry":{"type":"Point","coordinates":[121.402598,31.3248911]},"properties":{"bus":"yes","name":"沪太路锦秋路","name:zh":"沪太路锦秋路","public_transport":"stop_position"}},
{"type":"Feature","geometry":{"type":"Point","coordinates":[121.4027023,31.3249047]},"properties":{"bus":"yes","highway":"bus_stop","name":"沪太路锦秋路","name:zh":"沪太路锦秋路","public_transport":"platform"}},
{"type":"Feature","geometry":{"type":"Point","coordinates":[121.4023617,31.3245496]},"properties":{"bus":"yes","highway":"bus_stop","name":"沪太路锦秋路","name:zh":"沪太路锦秋路","public_transport":"platform"}},
{"type":"Feature","geometry":{"type":"Point","coordinates":[121.3918373,31.3231245]},"properties":{"bus":"yes","name":"锦秋路南陈路","name:zh":"锦秋路南陈路","public_transport":"stop_position"}},
{"type":"Feature","geometry":{"type":"Point","coordinates":[121.3933152,31.3231474]},"properties":{"bus":"yes","name":"锦秋路南陈路","name:zh":"锦秋路南陈路","public_transport":"stop_position"}},
{"type":"Feature","geometry":{"type":"Point","coordinates":[121.3933092,31.3230877]},"properties":{"bus":"yes","highway":"bus_stop","name":"锦秋路南陈路","name:zh":"锦秋路南陈路","public_transport":"platform"}},
{"type":"Feature","geometry":{"type":"Point","coordinates":[121.3918501,31.323184]},"properties":{"bus":"yes","highway":"bus_stop","name":"锦秋路南陈路","name:zh":"锦秋路南陈路","public_transport":"platform"}},
{"type":"Feature","geometry":{"type":"Point","coordinates":[121.3864803,31.3226112]},"properties":{"bus":"yes","name":"锦秋路瑞康路","name:zh":"锦秋路瑞康路","public_transport":"stop_position"}},
{"type":"Feature","geometry":{"type":"Point","coordinates":[121.3864884,31.3225287]},"properties":{"bus":"yes","highway":"bus_stop","name":"锦秋路瑞康路","name:zh":"锦秋路瑞康路","public_transport":"platform"}},
{"type":"Feature","geometry":{"type":"Point","coordinates":[121.4089173,31.3056862]},"properties":{"bus":"yes","name":"沪太路场中路","name:zh":"沪太路场中路","public_transport":"stop_position"}},
{"type":"Feature","geometry":{"type":"Point","coordinates":[121.4088285,31.3056793]},"properties":{"bus":"yes","highway":"bus_stop","name":"沪太路场中路","name:zh":"沪太路场中路","public_transport":"platform"}},
{"type":"Feature","geometry":{"type":"Point","coordinates":[121.4093247,31.3056656]},"properties":{"bus":"yes","highway":"bus_stop","name":"沪太路场中路","name:zh":"沪太路场中路","public_transport":"platform"}},
{"type":"Feature","geometry":{"type":"Point","coordinates":[121.4057441,31.3129328]},"properties":{"bus":"yes","name":"沪太路环镇北路","name:zh":"沪太路环镇北路","public_transport":"stop_position"}},
{"type":"Feature","geometry":{"type":"Point","coordinates":[121.4055215,31.3130807]},"properties":{"bus":"yes","name":"沪太路环镇北路","name:zh":"沪太路环镇北路","public_transport":"stop_position"}},
{"type":"Feature","geometry":{"type":"Point","coordinates":[121.405811,31.3129666]},"properties":{"bus":"yes","highway":"bus_stop","name":"沪太路环镇北路","name:zh":"沪太路环镇北路","public_transport":"platform"}},
{"type":"Feature","geometry":{"type":"Point","coordinates":[121.4054462,31.3130583]},"properties":{"bus":"yes","highway":"bus_stop","name":"沪太路环镇北路","name:zh":"沪太路环镇北路","public_transport":"platform"}},
{"type":"Feature","geometry":{"type":"Point","coordinates":[121.4000796,31.3145495]},"properties":{"bus":"yes","name":"上大路沪太路","name:zh":"上大路沪太路","public_transport":"stop_position"}},
{"type":"Feature","geometry":{"type":"Point","coordinates":[121.3995833,31.3144901]},"properties":{"bus":"yes","name":"上大路沪太路","name:zh":"上大路沪太路","public_transport":"stop_position"}},
{"type":"Feature","geometry":{"type":"Point","coordinates":[121.3995749,31.3145844]},"properties":{"bus":"yes","highway":"bus_stop","name":"上大路沪太路","name:zh":"上大路沪太路","public_transport":"platform"}},
{"type":"Feature","geometry":{"type":"Point","coordinates":[121.4001167,31.3144744]},"properties":{"bus":"yes","highway":"bus_stop","name":"上大路沪太路","name:zh":"上大路沪太路","public_transport":"platform"}},
{"type":"Feature","geometry":{"type":"Point","coordinates":[121.3932305,31.3142458]},"properties":{"bus":"yes","name":"南陈路上大路","name:zh":"南陈路上大路","public_transport":"stop_position"}},
{"type":"Feature","geometry":{"type":"Point","coordinates":[121.3932228,31.314355]},"properties":{"bus":"yes","name":"南陈路上大路","name:zh":"南陈路上大路","public_transport":"stop_position"}},
{"type":"Feature","geometry":{"type":"Point","coordinates":[121.39314829999999,31.314369]},"properties":{"bus":"yes","highway":"bus_stop","name":"南陈路上大路","name:zh":"南陈路上大路","public_transport":"platform"}},
{"type":"Feature","geometry":{"type":"Point","coordinates":[121.3932931,31.3142384]},"properties":{"bus":"yes","highway":"bus_stop","name":"南陈路上大路","name:zh":"南陈路上大路","public_transport":"platform"}},
{"type":"Feature","geometry":{"type":"Point","coordinates":[121.3928524,31.3192601]},"properties":{"bus":"yes","name":"南陈路四号桥","name:zh":"南陈路四号桥","public_transport":"stop_position"}},
{"type":"Feature","geometry":{"type":"Point","coordinates":[121.3927351,31.3207611]},"properties":{"bus":"yes","name":"南陈路四号桥","name:zh":"南陈路四号桥","public_transport":"stop_position"}},
{"type":"Feature","geometry":{"type":"Point","coordinates":[121.3926548,31.3207712]},"properties":{"bus":"yes","highway":"bus_stop","name":"南陈路四号桥","name:zh":"南陈路四号桥","public_transport":"platform"}},
{"type":"Feature","geometry":{"type":"Point","coordinates":[121.392931,31.3192612]},"properties":{"bus":"yes","highway":"bus_stop","name":"南陈路四号桥","name:zh":"南陈路四号桥","public_transport":"platform"}},
{"type":"Feature","geometry":{"type":"Point","coordinates":[121.3924526,31.3238573]},"properties":{"bus":"yes","name":"南陈路锦秋路","name:zh":"南陈路锦秋路","public_transport":"stop_position"}},
{"type":"Feature","geometry":{"type":"Point","coordinates":[121.3921854,31.3239424]},"properties":{"bus":"yes","highway":"bus_stop","name":"南陈路锦秋路","name:zh":"南陈路锦秋路","public_transport":"platform"}},
{"type":"Feature","geometry":{"type":"Point","coordinates":[121.3923007,31.3239653]},"properties":{"bus":"yes","name":"南陈路锦秋路","name:zh":"南陈路锦秋路","public_transport":"stop_position"}},
{"type":"Feature","geometry":{"type":"Point","coordinates":[121.3925019,31.3238691]},"properties":{"bus":"yes","highway":"bus_stop","name":"南陈路锦秋路","name:zh":"南陈路锦秋路","public_transport":"platform"}},
{"type":"Feature","geometry":{"type":"Point","coordinates":[121.3934554,31.3276317]},"properties":{"bus":"yes","name":"纬地路南陈路","name:zh":"纬地路南陈路","public_transport":"stop_position"}},
{"type":"Feature","geometry":{"type":"Point","coordinates":[121.3926695,31.3275166]},"properties":{"bus":"yes","name":"纬地路南陈路","name:zh":"纬地路南陈路","public_transport":"stop_position"}},
{"type":"Feature","geometry":{"type":"Point","coordinates":[121.3934755,31.3275671]},"properties":{"bus":"yes","highway":"bus_stop","name":"纬地路南陈路","name:zh":"纬地路南陈路","public_transport":"platform"}},
{"type":"Feature","geometry":{"type":"Point","coordinates":[121.3926494,31.3276152]},"properties":{"bus":"yes","highway":"bus_stop","name":"纬地路南陈路","name:zh":"纬地路南陈路","public_transport":"platform"}},
{"type":"Feature","geometry":{"type":"Point","coordinates":[121.3959483,31.3280264]},"properties":{"bus":"yes","name":"纬地路经地路","name:zh":"纬地路经地路","public_transport":"stop_position"}},
{"type":"Feature","geometry":{"type":"Point","coordinates":[121.3959807,31.327952]},"properties":{"bus":"yes","highway":"bus_stop","name":"纬地路经地路","name:zh":"纬地路经地路","public_transport":"platform"}},
{"type":"Feature","geometry":{"type":"Point","coordinates":[121.3998753,31.3282613]},"properties":{"bus":"yes","highway":"bus_stop","name":"纬地路沪太路","name:zh":"纬地路沪太路","public_transport":"platform"}},
{"type":"Feature","geometry":{"type":"Point","coordinates":[121.3942373,31.3298032]},"properties":{"bus":"yes","name":"经地路涵青路","name:zh":"经地路涵青路","public_transport":"stop_position"}},
{"type":"Feature","geometry":{"type":"Point","coordinates":[121.3941112,31.3298147]},"properties":{"bus":"yes","highway":"bus_stop","name":"经地路涵青路","name:zh":"经地路涵青路","public_transport":"platform"}},
{"type":"Feature","geometry":{"type":"Point","coordinates":[121.3991231,31.3325842]},"properties":{"bus":"yes","name":"涵青路沪太路","name:zh":"涵青路沪太路","public_transport":"stop_position"}},
{"type":"Feature","geometry":{"type":"Point","coordinates":[121.3991028,31.3326785]},"properties":{"bus":"yes","highway":"bus_stop","name":"涵青路沪太路","name:zh":"涵青路沪太路","public_transport":"platform"}},
{"type":"Feature","geometry":{"type":"Point","coordinates":[121.4202951,31.3339609]},"properties":{"bus":"yes","name":"场北路康宁路","name:zh":"场北路康宁路","public_transport":"stop_position"}},
{"type":"Feature","geometry":{"type":"Point","coordinates":[121.4040782,31.3166231]},"properties":{"bus":"yes","name":"沪太路上大路","name:zh":"沪太路上大路","public_transport":"stop_position"}},
{"type":"Feature","geometry":{"type":"Point","coordinates":[121.4037162,31.3168599]},"properties":{"bus":"yes","highway":"bus_stop","name":"沪太路上大路","name:zh":"沪太路上大路","public_transport":"platform"}},
{"type":"Feature","geometry":{"type":"Point","coordinates":[121.4041346,31.3166353]},"properties":{"bus":"yes","highway":"bus_stop","name":"沪太路上大路","name:zh":"沪太路上大路","public_transport":"platform"}},
{"type":"Feature","geometry":{"type":"Point","coordinates":[121.3754505,31.3288446]},"properties":{"bus":"yes","name":"塘祁路华秋路","name:zh":"塘祁路华秋路","public_transport":"stop_position"}},
{"type":"Feature","geometry":{"type":"Point","coordinates":[121.3739244,31.3283978]},"properties":{"bus":"yes","name":"塘祁路华秋路","name:zh":"塘祁路华秋路","public_transport":"stop_position"}},
{"type":"Feature","geometry":{"type":"Point","coordinates":[121.3754699,31.3287883]},"properties":{"bus":"yes","highway":"bus_stop","name":"塘祁路华秋路","name:zh":"塘祁路华秋路","public_transport":"platform"}},
{"type":"Feature","geometry":{"type":"Point","coordinates":[121.374986,31.3206169]},"properties":{"bus":"yes","name":"锦秋路祁连山路","name:zh":"锦秋路祁连山路","public_transport":"stop_position"}},
{"type":"Feature","geometry":{"type":"Point","coordinates":[121.3754988,31.3205717]},"properties":{"bus":"yes","name":"锦秋路祁连山路","name:zh":"锦秋路祁连山路","public_transport":"stop_position"}},
{"type":"Feature","geometry":{"type":"Point","coordinates":[121.3749656,31.3206613]},"properties":{"bus":"yes","highway":"bus_stop","name":"锦秋路祁连山路","name:zh":"锦秋路祁连山路","public_transport":"platform"}},
{"type":"Feature","geometry":{"type":"Point","coordinates":[121.3755181,31.3205261]},"properties":{"bus":"yes","highway":"bus_stop","name":"锦秋路祁连山路","name:zh":"锦秋路祁连山路","public_transport":"platform"}},
{"type":"Feature","geometry":{"type":"Point","coordinates":[121.3750274,31.3102885]},"properties":{"bus":"yes","name":"丰翔路祁连山路","name:zh":"丰翔路祁连山路","public_transport":"stop_position"}},
{"type":"Feature","geometry":{"type":"Point","coordinates":[121.3750434,31.3103543]},"properties":{"bus":"yes","highway":"bus_stop","name":"丰翔路祁连山路","name:zh":"丰翔路祁连山路","public_transport":"platform"}},
{"type":"Feature","geometry":{"type":"Point","coordinates":[121.3931971,31.3310767]},"properties":{"bus":"yes","name":"涵青路经地路","name:zh":"涵青路经地路","public_transport":"stop_position"}},
{"type":"Feature","geometry":{"type":"Point","coordinates":[121.3931885,31.3311229]},"properties":{"bus":"yes","highway":"bus_stop","name":"涵青路经地路","name:zh":"涵青路经地路","public_transport":"platform"}},
{"type":"Feature","geometry":{"type":"Point","coordinates":[121.3814746,31.3072477]},"properties":{"bus":"yes","name":"丰皓路贺兰山路","name:zh":"丰皓路贺兰山路","public_transport":"stop_position"}},
{"type":"Feature","geometry":{"type":"Point","coordinates":[121.3804021,31.3073038]},"properties":{"bus":"yes","name":"丰皓路贺兰山路","name:zh":"丰皓路贺兰山路","public_transport":"stop_position"}},
{"type":"Feature","geometry":{"type":"Point","coordinates":[121.3814995,31.3072927]},"properties":{"bus":"yes","highway":"bus_stop","name":"丰皓路贺兰山路","name:zh":"丰皓路贺兰山路","public_transport":"platform"}},
{"type":"Feature","geometry":{"type":"Point","coordinates":[121.3804024,31.3072124]},"properties":{"bus":"yes","highway":"bus_stop","name":"丰皓路贺兰山路","name:zh":"丰皓路贺兰山路","public_transport":"platform"}},
{"type":"Feature","geometry":{"type":"Point","coordinates":[121.3935882,31.3273907]},"properties":{"bus":"yes","highway":"bus_stop","name":"纬地路经地路","name:zh":"纬地路经地路","public_transport":"platform"}},
{"type":"Feature","geometry":{"type":"Point","coordinates":[121.3935855,31.3274479]},"properties":{"bus":"yes","name":"纬地路经地路","name:zh":"纬地路经地路","public_transport":"stop_position"}},
{"type":"Feature","geometry":{"type":"Point","coordinates":[121.4140474,31.3329117]},"properties":{"bus":"yes","name":"康文路场北路","name:zh":"康文路场北路","public_transport":"stop_position"}},
{"type":"Feature","geometry":{"type":"Point","coordinates":[121.4137892,31.3339003]},"properties":{"bus":"yes","name":"康文路场北路","name:zh":"康文路场北路","public_transport":"stop_position"}},
{"type":"Feature","geometry":{"type":"Point","coordinates":[121.4139864,31.3328985]},"properties":{"bus":"yes","highway":"bus_stop","name":"康文路场北路","name:zh":"康文路场北路","public_transport":"platform"}},
{"type":"Feature","geometry":{"type":"Point","coordinates":[121.4138496,31.3339237]},"properties":{"bus":"yes","highway":"bus_stop","name":"康文路场北路","name:zh":"康文路场北路","public_transport":"platform"}},
{"type":"Feature","geometry":{"type":"Point","coordinates":[121.4163771,31.3303561]},"properties":{"bus":"yes","name":"花园宅路康文路","name:zh":"花园宅路康文路","public_transport":"stop_position"}},
{"type":"Feature","geometry":{"type":"Point","coordinates":[121.4161444,31.3303171]},"properties":{"bus":"yes","name":"花园宅路康文路","name:zh":"花园宅路康文路","public_transport":"stop_position"}},
{"type":"Feature","geometry":{"type":"Point","coordinates":[121.4163816,31.3302981]},"properties":{"bus":"yes","highway":"bus_stop","name":"花园宅路康文路","name:zh":"花园宅路康文路","public_transport":"platform"}},
{"type":"Feature","geometry":{"type":"Point","coordinates":[121.4161214,31.3303898]},"properties":{"bus":"yes","highway":"bus_stop","name":"花园宅路康文路","name:zh":"花园宅路康文路","public_transport":"platform"}},
{"type":"Feature","geometry":{"type":"Point","coordinates":[121.4180821,31.3306418]},"properties":{"bus":"yes","name":"花园宅路大康路","name:zh":"花园宅路大康路","public_transport":"stop_position"}},
{"type":"Feature","geometry":{"type":"Point","coordinates":[121.4180553,31.3307426]},"properties":{"bus":"yes","highway":"bus_stop","name":"花园宅路大康路","name:zh":"花园宅路大康路","public_transport":"platform"}},
{"type":"Feature","geometry":{"type":"Point","coordinates":[121.4199259,31.3309284]},"properties":{"bus":"yes","name":"花园宅路大康路","name:zh":"花园宅路大康路","public_transport":"stop_position"}},
{"type":"Feature","geometry":{"type":"Point","coordinates":[121.4199623,31.3308296]},"properties":{"bus":"yes","highway":"bus_stop","name":"花园宅路大康路","name:zh":"花园宅路大康路","public_transport":"platform"}},
{"type":"Feature","geometry":{"type":"Point","coordinates":[121.4211173,31.3311215]},"properties":{"bus":"yes","name":"花园宅路康宁路","name:zh":"花园宅路康宁路","public_transport":"stop_position"}},
{"type":"Feature","geometry":{"type":"Point","coordinates":[121.4210996,31.3312168]},"properties":{"bus":"yes","highway":"bus_stop","name":"花园宅路康宁路","name:zh":"花园宅路康宁路","public_transport":"platform"}},
{"type":"Feature","geometry":{"type":"Point","coordinates":[121.421809,31.3333616]},"properties":{"bus":"yes","name":"康宁路场北路","name:zh":"康宁路场北路","public_transport":"stop_position"}},
{"type":"Feature","geometry":{"type":"Point","coordinates":[121.4217031,31.3333613]},"properties":{"bus":"yes","highway":"bus_stop","name":"康宁路场北路","name:zh":"康宁路场北路","public_transport":"platform"}},
{"type":"Feature","geometry":{"type":"Point","coordinates":[121.4008972,31.323084]},"properties":{"bus":"yes","name":"锦秋路沪太路","name:zh":"锦秋路沪太路","public_transport":"stop_position"}},
{"type":"Feature","geometry":{"type":"Point","coordinates":[121.4002158,31.3231889]},"properties":{"bus":"yes","name":"锦秋路沪太路","name:zh":"锦秋路沪太路","public_transport":"stop_position"}},
{"type":"Feature","geometry":{"type":"Point","coordinates":[121.4008972,31.3230362]},"properties":{"bus":"yes","highway":"bus_stop","name":"锦秋路沪太路","name:zh":"锦秋路沪太路","public_transport":"platform"}},
{"type":"Feature","geometry":{"type":"Point","coordinates":[121.4002253,31.3232332]},"properties":{"bus":"yes","highway":"bus_stop","name":"锦秋路沪太路","name:zh":"锦秋路沪太路","public_transport":"platform"}},
{"type":"Feature","geometry":{"type":"Point","coordinates":[121.4196037,31.3092338]},"properties":{"leisure":"pitch","sport":"basketball"}},
{"type":"Feature","geometry":{"type":"Point","coordinates":[121.4143652,31.32889]},"properties":{"ref":"8","tourism":"artwork"}},
{"type":"Feature","geometry":{"type":"Point","coordinates":[121.4144084,31.3294773]},"properties":{"man_made":"tower","tower:type":"communication"}},
{"type":"Feature","geometry":{"type":"Point","coordinates":[121.4121267,31.3308092]},"properties":{"leisure":"pitch","sport":"basketball"}},
{"type":"Feature","geometry":{"type":"Point","coordinates":[121.3760505,31.3206193]},"properties":{"amenity":"bank","name":"中国农业银行（宝山工业区支行）"}},
{"type":"Feature","geometry":{"type":"Point","coordinates":[121.3749449,31.3166358]},"properties":{"brand":"罗森","brand:en":"LAWSON","brand:wikidata":"Q1557223","brand:zh":"罗森","name":"罗森","name:en":"Lawson","name:zh":"罗森","shop":"convenience"}},
{"type":"Feature","geometry":{"type":"Point","coordinates":[121.3772946,31.3170544]},"properties":{"amenity":"cafe","brand":"星巴克","brand:en":"Starbucks","brand:wikidata":"Q37158","brand:zh":"星巴克","cuisine":"coffee_shop","name":"星巴克","name:en":"Starbucks","name:zh":"星巴克","takeaway":"yes"}},
{"type":"Feature","geometry":{"type":"Point","coordinates":[121.3764506,31.316703]},"properties":{"leisure":"park","name":"口袋公园"}},
{"type":"Feature","geometry":{"type":"Point","coordinates":[121.3724547,31.320014]},"properties":{"bus":"yes","name":"丁家桥","name:zh":"丁家桥","public_transport":"stop_position"}},
{"type":"Feature","geometry":{"type":"Point","coordinates":[121.3729778,31.3202171]},"properties":{"bus":"yes","name":"丁家桥","name:zh":"丁家桥","public_transport":"stop_position"}},
{"type":"Feature","geometry":{"type":"Point","coordinates":[121.3888495,31.3105098]},"properties":{"bus":"yes","name":"文海路环镇北路","name:zh":"文海路环镇北路","public_transport":"stop_position"}},
{"type":"Feature","geometry":{"type":"Point","coordinates":[121.3888435,31.3107324]},"properties":{"bus":"yes","name":"文海路环镇北路","name:zh":"文海路环镇北路","public_transport":"stop_position"}},
{"type":"Feature","geometry":{"type":"Point","coordinates":[121.3889185,31.3105193]},"properties":{"bus":"yes","highway":"bus_stop","name":"文海路环镇北路","name:zh":"文海路环镇北路","public_transport":"platform"}},
{"type":"Feature","geometry":{"type":"Point","coordinates":[121.388787,31.310737]},"properties":{"bus":"yes","highway":"bus_stop","name":"文海路环镇北路","name:zh":"文海路环镇北路","public_transport":"platform"}},
{"type":"Feature","geometry":{"type":"Point","coordinates":[121.4062811,31.310033]},"properties":{"bus":"yes","name":"环镇北路沪太路","name:zh":"环镇北路沪太路","public_transport":"stop_position"}},
{"type":"Feature","geometry":{"type":"Point","coordinates":[121.4060804,31.3100113]},"properties":{"bus":"yes","name":"环镇北路沪太路","name:zh":"环镇北路沪太路","public_transport":"stop_position"}},
{"type":"Feature","geometry":{"type":"Point","coordinates":[121.4060819,31.3099441]},"properties":{"bus":"yes","highway":"bus_stop","name":"环镇北路沪太路","name:zh":"环镇北路沪太路","public_transport":"platform"}},
{"type":"Feature","geometry":{"type":"Point","coordinates":[121.406267,31.3100793]},"properties":{"bus":"yes","highway":"bus_stop","name":"环镇北路沪太路","name:zh":"环镇北路沪太路","public_transport":"platform"}},
{"type":"Feature","geometry":{"type":"Point","coordinates":[121.4188361,31.3338259]},"properties":{"bus":"yes","name":"场北路大康路","name:zh":"场北路大康路","public_transport":"stop_position"}},
{"type":"Feature","geometry":{"type":"Point","coordinates":[121.4172955,31.3336833]},"properties":{"bus":"yes","name":"场北路大康路","name:zh":"场北路大康路","public_transport":"stop_position"}},
{"type":"Feature","geometry":{"type":"Point","coordinates":[121.4188492,31.3337393]},"properties":{"bus":"yes","highway":"bus_stop","name":"场北路大康路","name:zh":"场北路大康路","public_transport":"platform"}},
{"type":"Feature","geometry":{"type":"Point","coordinates":[121.4172614,31.3337576]},"properties":{"bus":"yes","highway":"bus_stop","name":"场北路大康路","name:zh":"场北路大康路","public_transport":"platform"}},
{"type":"Feature","geometry":{"type":"Point","coordinates":[121.4180576,31.3344624]},"properties":{"bus":"yes","name":"大康路场北路","name:zh":"大康路场北路","public_transport":"stop_position"}},
{"type":"Feature","geometry":{"type":"Point","coordinates":[121.4174731,31.3365423]},"properties":{"bus":"yes","name":"大康路南蕰藻路","name:zh":"大康路南蕰藻路","public_transport":"stop_position"}},
{"type":"Feature","geometry":{"type":"Point","coordinates":[121.4175811,31.336158]},"properties":{"bus":"yes","name":"大康路南蕰藻路","name:zh":"大康路南蕰藻路","public_transport":"stop_position"}},
{"type":"Feature","geometry":{"type":"Point","coordinates":[121.3812381,31.3217433]},"properties":{"bus":"yes","name":"锦秋路上海大学","name:zh":"锦秋路上海大学","public_transport":"stop_position"}},
{"type":"Feature","geometry":{"type":"Point","coordinates":[121.3812527,31.3216889]},"properties":{"bus":"yes","highway":"bus_stop","name":"锦秋路上海大学","name:zh":"锦秋路上海大学","public_transport":"platform"}},
{"type":"Feature","geometry":{"type":"Point","coordinates":[121.3757412,31.3249432]},"properties":{"bus":"yes","name":"祁华路祁连山路","name:zh":"祁华路祁连山路","public_transport":"stop_position"}},
{"type":"Feature","geometry":{"type":"Point","coordinates":[121.3763875,31.3250939]},"properties":{"bus":"yes","name":"祁华路祁连山路","name:zh":"祁华路祁连山路","public_transport":"stop_position"}},
{"type":"Feature","geometry":{"type":"Point","coordinates":[121.3757461,31.3248635]},"properties":{"bus":"yes","highway":"bus_stop","name":"祁华路祁连山路","name:zh":"祁华路祁连山路","public_transport":"platform"}},